{
"type": "FeatureCollection",
"name": "points_iav",
"crs": { "type": "name", "properties": { "name": "urn:ogc:def:crs:OGC:1.3:CRS84" } },
"features": [
{ "type": "Feature", "properties": { "fid": 1, "name": null, "label": "", "brochure": null, "mail": null, "image": null, "grouping": null, "department": null, "label_state": null, "icon_name": "entrance" }, "geometry": { "type": "Point", "coordinates": [ -6.863998042951765, 33.981314851504933 ] } },
{ "type": "Feature", "properties": { "fid": 2, "name": "Pavillon 3 (Garçons)", "label": "", "brochure": null, "mail": "economat.iav@gmail.com", "image": null, "grouping": "room", "department": "Internat", "label_state": 0, "icon_name": null }, "geometry": { "type": "Point", "coordinates": [ -6.861735049146822, 33.980071693528586 ] } },
{ "type": "Feature", "properties": { "fid": 3, "name": "Pavillon 1 (Garçons)", "label": "", "brochure": null, "mail": "economat.iav@gmail.com", "image": null, "grouping": "room", "department": "Internat", "label_state": 0, "icon_name": null }, "geometry": { "type": "Point", "coordinates": [ -6.862379882125106, 33.979836794742617 ] } },
{ "type": "Feature", "properties": { "fid": 4, "name": "Pavillon 8 (Garçons)", "label": "", "brochure": null, "mail": "economat.iav@gmail.com", "image": null, "grouping": "room", "department": "Internat", "label_state": 0, "icon_name": null }, "geometry": { "type": "Point", "coordinates": [ -6.861764227209731, 33.979732930716061 ] } },
{ "type": "Feature", "properties": { "fid": 5, "name": "Pavillon 7 (Garçons)", "label": "", "brochure": null, "mail": "economat.iav@gmail.com", "image": null, "grouping": "room", "department": "Internat", "label_state": 0, "icon_name": null }, "geometry": { "type": "Point", "coordinates": [ -6.862308448886195, 33.979776113811518 ] } },
{ "type": "Feature", "properties": { "fid": 6, "name": "Formation Industrie Agro-Alimentaire", "label": "", "brochure": "<a href=\"https://iav.ac.ma/sites/default/files/2020-06/Industries-Agro-Alimentaires.pdf\" target=\"_blank\">Filière Industries Agro-Alimentaires</a>", "mail": null, "image": null, "grouping": "departments", "department": "Formation", "label_state": 0, "icon_name": null }, "geometry": { "type": "Point", "coordinates": [ -6.866001703033977, 33.975050075307017 ] } },
{ "type": "Feature", "properties": { "fid": 7, "name": "Formation Médecine Vétérinaire", "label": "", "brochure": "", "mail": null, "image": null, "grouping": "departments", "department": "Formation", "label_state": 0, "icon_name": null }, "geometry": { "type": "Point", "coordinates": [ -6.867814776877324, 33.97367902092622 ] } },
{ "type": "Feature", "properties": { "fid": 8, "name": "Formation Topographie", "label": "", "brochure": "<a href=\"https://iav.ac.ma/sites/default/files/2020-06/SGIT.pdf\" target=\"_blank\">Filière Géomatiques et Ingénierie Topographique</a>", "mail": "m.bouziani@iav.ac.ma", "image": "./assets/img/popup/LogoESGIT_HD.png", "grouping": "departments", "department": "Formation", "label_state": 0, "icon_name": null }, "geometry": { "type": "Point", "coordinates": [ -6.866917503836601, 33.976574645429309 ] } },
{ "type": "Feature", "properties": { "fid": 10, "name": "Formation Halieutique", "label": "", "brochure": null, "mail": null, "image": null, "grouping": "departments", "department": "Formation", "label_state": 0, "icon_name": null }, "geometry": { "type": "Point", "coordinates": [ -6.865291295706158, 33.975609084351852 ] } },
{ "type": "Feature", "properties": { "fid": 11, "name": "Salle BDE", "label": "", "brochure": null, "mail": null, "image": null, "grouping": "bde", "department": "Vie Associative", "label_state": 0, "icon_name": null }, "geometry": { "type": "Point", "coordinates": [ -6.86196635649154, 33.980355632269017 ] } },
{ "type": "Feature", "properties": { "fid": 12, "name": "Pavillon 2 (Garçons)", "label": "", "brochure": null, "mail": null, "image": null, "grouping": "room", "department": "Internat", "label_state": 0, "icon_name": null }, "geometry": { "type": "Point", "coordinates": [ -6.861835695289789, 33.979659986957607 ] } },
{ "type": "Feature", "properties": { "fid": 13, "name": "Restaurant IAV ", "label": "", "brochure": null, "mail": null, "image": null, "grouping": "food", "department": "Restaus", "label_state": 0, "icon_name": null }, "geometry": { "type": "Point", "coordinates": [ -6.862041618129224, 33.980163412716728 ] } },
{ "type": "Feature", "properties": { "fid": 14, "name": "Buvette IAV", "label": "", "brochure": null, "mail": null, "image": null, "grouping": "food", "department": "Buvettes", "label_state": 0, "icon_name": null }, "geometry": { "type": "Point", "coordinates": [ -6.862504811850894, 33.980444392165069 ] } },
{ "type": "Feature", "properties": { "fid": 15, "name": "CDA", "label": "", "brochure": null, "mail": null, "image": null, "grouping": "cda", "department": "CDA et Salle d'étude", "label_state": 0, "icon_name": null }, "geometry": { "type": "Point", "coordinates": [ -6.862555029699106, 33.980116407966143 ] } },
{ "type": "Feature", "properties": { "fid": 16, "name": "Salle d'études IAV", "label": "", "brochure": null, "mail": null, "image": null, "grouping": "study", "department": "CDA et Salle d'étude", "label_state": 0, "icon_name": null }, "geometry": { "type": "Point", "coordinates": [ -6.86212573343144, 33.980180105576721 ] } },
{ "type": "Feature", "properties": { "fid": 17, "name": "Médecin de l'IAV", "label": "", "brochure": null, "mail": null, "image": null, "grouping": "health", "department": "Santé", "label_state": 0, "icon_name": null }, "geometry": { "type": "Point", "coordinates": [ -6.861897601531566, 33.980337438326352 ] } },
{ "type": "Feature", "properties": { "fid": 18, "name": "Salle de Sport", "label": "", "brochure": null, "mail": null, "image": null, "grouping": "game", "department": "Equipement Sportif", "label_state": 0, "icon_name": null }, "geometry": { "type": "Point", "coordinates": [ -6.861560928107256, 33.980475685150651 ] } },
{ "type": "Feature", "properties": { "fid": 19, "name": "Epicerie M'bark", "label": "", "brochure": null, "mail": null, "image": null, "grouping": "press", "department": "Divers", "label_state": 0, "icon_name": null }, "geometry": { "type": "Point", "coordinates": [ -6.862775755004384, 33.980792622767638 ] } },
{ "type": "Feature", "properties": { "fid": 20, "name": "Grand-Amphi AGRO", "label": "", "brochure": null, "mail": null, "image": null, "grouping": "amphitheater", "department": "Amphithéàtres", "label_state": 0, "icon_name": null }, "geometry": { "type": "Point", "coordinates": [ -6.866898976074701, 33.974809743766848 ] } },
{ "type": "Feature", "properties": { "fid": 21, "name": "Amphithéàtre Véto", "label": "", "brochure": null, "mail": null, "image": null, "grouping": "amphitheater", "department": "Amphithéàtres", "label_state": 0, "icon_name": null }, "geometry": { "type": "Point", "coordinates": [ -6.867248356727723, 33.976338548806147 ] } },
{ "type": "Feature", "properties": { "fid": 22, "name": "Amphithéâtre Paul Pascon ", "label": "", "brochure": null, "mail": null, "image": null, "grouping": "amphitheater", "department": "Amphithéàtre", "label_state": 0, "icon_name": null }, "geometry": { "type": "Point", "coordinates": [ -6.863151074524071, 33.980082215439772 ] } },
{ "type": "Feature", "properties": { "fid": 23, "name": "Bureau d'ordre", "label": "", "brochure": null, "mail": null, "image": null, "grouping": "admin", "department": "Administration ", "label_state": 0, "icon_name": null }, "geometry": { "type": "Point", "coordinates": [ -6.863611621748512, 33.980265375600297 ] } },
{ "type": "Feature", "properties": { "fid": 24, "name": "Club El Harka", "label": "", "brochure": null, "mail": null, "image": null, "grouping": "service", "department": "Services", "label_state": 0, "icon_name": null }, "geometry": { "type": "Point", "coordinates": [ -6.868799395081303, 33.976192444169428 ] } },
{ "type": "Feature", "properties": { "fid": 25, "name": "Club Equestre El Harka", "label": "", "brochure": null, "mail": null, "image": null, "grouping": "service", "department": "Services", "label_state": 0, "icon_name": null }, "geometry": { "type": "Point", "coordinates": [ -6.868157805154839, 33.976903380861877 ] } },
{ "type": "Feature", "properties": { "fid": 26, "name": "Espace Equitation 1", "label": "", "brochure": null, "mail": null, "image": null, "grouping": "service", "department": "Services", "label_state": 0, "icon_name": null }, "geometry": { "type": "Point", "coordinates": [ -6.868501362796979, 33.97578800959532 ] } },
{ "type": "Feature", "properties": { "fid": 27, "name": "Espace Equitation 2", "label": "", "brochure": null, "mail": null, "image": null, "grouping": "service", "department": "Services", "label_state": 0, "icon_name": null }, "geometry": { "type": "Point", "coordinates": [ -6.868120220266409, 33.974875384980443 ] } },
{ "type": "Feature", "properties": { "fid": 28, "name": "Restaurant Apesa", "label": "", "brochure": null, "mail": null, "image": null, "grouping": "food", "department": "Restaus", "label_state": 0, "icon_name": null }, "geometry": { "type": "Point", "coordinates": [ -6.867930203586025, 33.972831515686643 ] } },
{ "type": "Feature", "properties": { "fid": 29, "name": "Clinique Equine", "label": "", "brochure": null, "mail": null, "image": null, "grouping": "service", "department": "Services", "label_state": 0, "icon_name": null }, "geometry": { "type": "Point", "coordinates": [ -6.868603530169759, 33.974325639816556 ] } },
{ "type": "Feature", "properties": { "fid": 30, "name": "Buvette APESA", "label": "", "brochure": null, "mail": null, "image": null, "grouping": "food", "department": "Restaus", "label_state": 0, "icon_name": null }, "geometry": { "type": "Point", "coordinates": [ -6.867884931031415, 33.972432452169961 ] } },
{ "type": "Feature", "properties": { "fid": 31, "name": "Terrain du Volleyball 01", "label": "", "brochure": null, "mail": null, "image": null, "grouping": "sport", "department": "Equipement Sportif", "label_state": 0, "icon_name": null }, "geometry": { "type": "Point", "coordinates": [ -6.866882565771298, 33.971911207758332 ] } },
{ "type": "Feature", "properties": { "fid": 32, "name": "Terrain du Volleyball 02", "label": "", "brochure": null, "mail": null, "image": null, "grouping": "sport", "department": "Equipement Sportif", "label_state": 0, "icon_name": null }, "geometry": { "type": "Point", "coordinates": [ -6.86699426170734, 33.971984789441315 ] } },
{ "type": "Feature", "properties": { "fid": 33, "name": "Terrain du Handball", "label": "", "brochure": null, "mail": null, "image": null, "grouping": "sport", "department": "Equipement Sportif", "label_state": 0, "icon_name": null }, "geometry": { "type": "Point", "coordinates": [ -6.86666817309785, 33.972218239241293 ] } },
{ "type": "Feature", "properties": { "fid": 34, "name": "Terrain du Basketball 04", "label": "", "brochure": null, "mail": null, "image": null, "grouping": "sport", "department": "Equipement Sportif", "label_state": 0, "icon_name": "basket" }, "geometry": { "type": "Point", "coordinates": [ -6.86704719816992, 33.972313524873933 ] } },
{ "type": "Feature", "properties": { "fid": 35, "name": "Terrain du Basketball 03", "label": "", "brochure": null, "mail": null, "image": null, "grouping": "sport", "department": "Equipement Sportif", "label_state": 0, "icon_name": "basket" }, "geometry": { "type": "Point", "coordinates": [ -6.866885212594426, 33.972483980283435 ] } },
{ "type": "Feature", "properties": { "fid": 36, "name": "Terrain du Basketball 01", "label": "", "brochure": null, "mail": null, "image": null, "grouping": "sport", "department": "Equipement Sportif", "label_state": 0, "icon_name": "basket" }, "geometry": { "type": "Point", "coordinates": [ -6.866341025759111, 33.972492979482077 ] } },
{ "type": "Feature", "properties": { "fid": 37, "name": "Terrain du Basketball 02", "label": "", "brochure": null, "mail": null, "image": null, "grouping": "sport", "department": "Equipement Sportif", "label_state": 0, "icon_name": "basket" }, "geometry": { "type": "Point", "coordinates": [ -6.86645695661216, 33.972569737352821 ] } },
{ "type": "Feature", "properties": { "fid": 38, "name": "Terrain du Football", "label": "", "brochure": null, "mail": null, "image": null, "grouping": "sport", "department": "Equipement Sportif", "label_state": 0, "icon_name": null }, "geometry": { "type": "Point", "coordinates": [ -6.866607296165887, 33.97273489911607 ] } },
{ "type": "Feature", "properties": { "fid": 39, "name": "Grand-terrain du Football", "label": "", "brochure": null, "mail": null, "image": null, "grouping": "sport", "department": "Equipement Sportif", "label_state": 0, "icon_name": null }, "geometry": { "type": "Point", "coordinates": [ -6.865626912878914, 33.973369077937768 ] } },
{ "type": "Feature", "properties": { "fid": 40, "name": "Capacity Building Center", "label": "", "brochure": null, "mail": null, "image": null, "grouping": "cap", "department": "Structures", "label_state": 0, "icon_name": null }, "geometry": { "type": "Point", "coordinates": [ -6.865988468918331, 33.976873471760534 ] } },
{ "type": "Feature", "properties": { "fid": 41, "name": "ONSSA", "label": "", "brochure": null, "mail": null, "image": null, "grouping": "onssa", "department": "Structures", "label_state": 0, "icon_name": null }, "geometry": { "type": "Point", "coordinates": [ -6.869492903473343, 33.974764962642141 ] } },
{ "type": "Feature", "properties": { "fid": 42, "name": "Pavillon 4 (Garçons)", "label": "", "brochure": null, "mail": null, "image": null, "grouping": "room", "department": "Internat", "label_state": 0, "icon_name": null }, "geometry": { "type": "Point", "coordinates": [ -6.861287711041272, 33.980327046579234 ] } },
{ "type": "Feature", "properties": { "fid": 43, "name": "Pavillon 5 (Garçons)", "label": "", "brochure": null, "mail": null, "image": null, "grouping": "room", "department": "Internat", "label_state": 0, "icon_name": null }, "geometry": { "type": "Point", "coordinates": [ -6.861029381103886, 33.980491149613229 ] } },
{ "type": "Feature", "properties": { "fid": 44, "name": "Mosquée", "label": "", "brochure": null, "mail": null, "image": null, "grouping": "prayer", "department": "Divers", "label_state": 0, "icon_name": null }, "geometry": { "type": "Point", "coordinates": [ -6.861180779386864, 33.980388452875822 ] } },
{ "type": "Feature", "properties": { "fid": 45, "name": "Foyer", "label": "", "brochure": null, "mail": null, "image": null, "grouping": "press", "department": "Divers", "label_state": 0, "icon_name": null }, "geometry": { "type": "Point", "coordinates": [ -6.861791136800405, 33.980366219561532 ] } },
{ "type": "Feature", "properties": { "fid": 46, "name": "Salle de jeux", "label": "", "brochure": null, "mail": null, "image": null, "grouping": "game", "department": "Divers", "label_state": 0, "icon_name": null }, "geometry": { "type": "Point", "coordinates": [ -6.861917125581343, 33.980386070735008 ] } },
{ "type": "Feature", "properties": { "fid": 47, "name": "Formation Génie Rural", "label": "", "brochure": null, "mail": null, "image": null, "grouping": "departments", "department": "Formation", "label_state": 0, "icon_name": null }, "geometry": { "type": "Point", "coordinates": [ -6.865810031278697, 33.977257632612293 ] } },
{ "type": "Feature", "properties": { "fid": 48, "name": "Salle des Conférences", "label": "", "brochure": null, "mail": null, "image": null, "grouping": "amphitheater", "department": "Amphithéàtres", "label_state": 0, "icon_name": null }, "geometry": { "type": "Point", "coordinates": [ -6.862895055841095, 33.979749150321801 ] } },
{ "type": "Feature", "properties": { "fid": 49, "name": "Bureau Directeur Général", "label": "", "brochure": null, "mail": null, "image": null, "grouping": "admin", "department": "Administration", "label_state": 0, "icon_name": null }, "geometry": { "type": "Point", "coordinates": [ -6.863621392971395, 33.979999362298877 ] } },
{ "type": "Feature", "properties": { "fid": 50, "name": "Bureau Directeur Pédagogique", "label": "", "brochure": null, "mail": null, "image": null, "grouping": "admin", "department": "Administration", "label_state": 0, "icon_name": null }, "geometry": { "type": "Point", "coordinates": [ -6.863758648360395, 33.980090646983427 ] } },
{ "type": "Feature", "properties": { "fid": 51, "name": "Bureau Responsable Informatique", "label": "", "brochure": null, "mail": null, "image": null, "grouping": "admin", "department": "Administration", "label_state": 0, "icon_name": null }, "geometry": { "type": "Point", "coordinates": [ -6.863683125060228, 33.980044019554633 ] } },
{ "type": "Feature", "properties": { "fid": 52, "name": "Salle des réunions", "label": "", "brochure": null, "mail": null, "image": null, "grouping": "admin", "department": "Administration", "label_state": 0, "icon_name": null }, "geometry": { "type": "Point", "coordinates": [ -6.863677214541084, 33.980174707700137 ] } },
{ "type": "Feature", "properties": { "fid": 53, "name": "Ecole doctorale", "label": "", "brochure": null, "mail": null, "image": null, "grouping": "admin", "department": "Administration", "label_state": 0, "icon_name": null }, "geometry": { "type": "Point", "coordinates": [ -6.863543242773832, 33.979980974017103 ] } },
{ "type": "Feature", "properties": { "fid": 54, "name": "Département des Stages", "label": "", "brochure": null, "mail": null, "image": null, "grouping": "departments", "department": "Formation", "label_state": 0, "icon_name": null }, "geometry": { "type": "Point", "coordinates": [ -6.864215053067795, 33.979001542920507 ] } },
{ "type": "Feature", "properties": { "fid": 55, "name": "grass", "label": "", "brochure": null, "mail": null, "image": null, "grouping": null, "department": null, "label_state": 0, "icon_name": null }, "geometry": { "type": "Point", "coordinates": [ -6.867703009938676, 33.976534020075675 ] } },
{ "type": "Feature", "properties": { "fid": 56, "name": "grass", "label": "", "brochure": null, "mail": null, "image": null, "grouping": null, "department": null, "label_state": 0, "icon_name": null }, "geometry": { "type": "Point", "coordinates": [ -6.868750207624503, 33.975224549256595 ] } },
{ "type": "Feature", "properties": { "fid": 57, "name": "grass", "label": "", "brochure": null, "mail": null, "image": null, "grouping": null, "department": null, "label_state": 0, "icon_name": null }, "geometry": { "type": "Point", "coordinates": [ -6.867065430678887, 33.978049987992307 ] } },
{ "type": "Feature", "properties": { "fid": 58, "name": "Amphithéâtre APESA", "label": "", "brochure": null, "mail": null, "image": null, "grouping": "amphitheater", "department": "Amphithéâtre", "label_state": 0, "icon_name": null }, "geometry": { "type": "Point", "coordinates": [ -6.868903429967482, 33.972626052992332 ] } },
{ "type": "Feature", "properties": { "fid": 59, "name": "Bibliothèque Topo", "label": "", "brochure": null, "mail": null, "image": null, "grouping": "biblio", "department": "Bibliothèque", "label_state": 0, "icon_name": null }, "geometry": { "type": "Point", "coordinates": [ -6.867049984132595, 33.976345968135057 ] } },
{ "type": "Feature", "properties": { "fid": 60, "name": "Résidence Filles", "label": "", "brochure": null, "mail": null, "image": null, "grouping": "room", "department": "Résidence", "label_state": 0, "icon_name": null }, "geometry": { "type": "Point", "coordinates": [ -6.862025665356802, 33.980510737696008 ] } },
{ "type": "Feature", "properties": { "fid": 61, "name": "Pavillon A (Garçons)", "label": "", "brochure": null, "mail": null, "image": null, "grouping": "room", "department": "Résidence", "label_state": 0, "icon_name": null }, "geometry": { "type": "Point", "coordinates": [ -6.867993843198661, 33.972016691547338 ] } },
{ "type": "Feature", "properties": { "fid": 62, "name": "Pavillion B (Garçons)", "label": "", "brochure": null, "mail": null, "image": null, "grouping": "room", "department": "Résidence", "label_state": 0, "icon_name": null }, "geometry": { "type": "Point", "coordinates": [ -6.868033599063462, 33.972256597628039 ] } },
{ "type": "Feature", "properties": { "fid": 63, "name": "Pavillion C (Garçons)", "label": "", "brochure": null, "mail": null, "image": null, "grouping": "room", "department": "Résidence", "label_state": 0, "icon_name": null }, "geometry": { "type": "Point", "coordinates": [ -6.867681279847806, 33.972352560060315 ] } },
{ "type": "Feature", "properties": { "fid": 64, "name": "Pavillion D (Filles)", "label": "", "brochure": null, "mail": null, "image": null, "grouping": "room", "department": "Résidence", "label_state": 0, "icon_name": null }, "geometry": { "type": "Point", "coordinates": [ -6.867730631955836, 33.97260069149236 ] } },
{ "type": "Feature", "properties": { "fid": 65, "name": "Pavillion E (Filles)", "label": "", "brochure": null, "mail": null, "image": null, "grouping": "room", "department": "Résidence", "label_state": 0, "icon_name": null }, "geometry": { "type": "Point", "coordinates": [ -6.867368716496952, 33.972703508384086 ] } },
{ "type": "Feature", "properties": { "fid": 66, "name": "Pavillion F (Filles)", "label": "", "brochure": null, "mail": null, "image": null, "grouping": "room", "department": "Résidence", "label_state": 0, "icon_name": null }, "geometry": { "type": "Point", "coordinates": [ -6.867430406631989, 33.972940672681005 ] } },
{ "type": "Feature", "properties": { "fid": 67, "name": "Terrain du Basketball Admin", "label": "", "brochure": null, "mail": null, "image": null, "grouping": null, "department": "Sport", "label_state": 0, "icon_name": "basket" }, "geometry": { "type": "Point", "coordinates": [ -6.864495405980523, 33.979939978477404 ] } },
{ "type": "Feature", "properties": { "fid": 68, "name": null, "label": "", "brochure": null, "mail": null, "image": null, "grouping": null, "department": null, "label_state": 0, "icon_name": "parking" }, "geometry": { "type": "Point", "coordinates": [ -6.86359122389485, 33.980966559249318 ] } },
{ "type": "Feature", "properties": { "fid": 69, "name": null, "label": "", "brochure": null, "mail": null, "image": null, "grouping": null, "department": null, "label_state": 0, "icon_name": "parking" }, "geometry": { "type": "Point", "coordinates": [ -6.867435204753602, 33.977092418768997 ] } },
{ "type": "Feature", "properties": { "fid": 70, "name": null, "label": "", "brochure": null, "mail": null, "image": null, "grouping": null, "department": null, "label_state": 0, "icon_name": "parking" }, "geometry": { "type": "Point", "coordinates": [ -6.864374688609821, 33.980303733020655 ] } },
{ "type": "Feature", "properties": { "fid": 71, "name": "grass", "label": "", "brochure": null, "mail": null, "image": null, "grouping": null, "department": null, "label_state": 0, "icon_name": null }, "geometry": { "type": "Point", "coordinates": [ -6.863408209827573, 33.981122155478801 ] } },
{ "type": "Feature", "properties": { "fid": 72, "name": "grass", "label": "", "brochure": null, "mail": null, "image": null, "grouping": null, "department": null, "label_state": 0, "icon_name": null }, "geometry": { "type": "Point", "coordinates": [ -6.8641909890966, 33.979697798805397 ] } },
{ "type": "Feature", "properties": { "fid": 9, "name": "Formation Agronomie", "label": "", "brochure": null, "mail": null, "image": null, "grouping": "departments", "department": "Formation", "label_state": 0, "icon_name": null }, "geometry": { "type": "Point", "coordinates": [ -6.863559004546889, 33.979152067100614 ] } },
{ "type": "Feature", "properties": { "fid": 73, "name": "Bureau logistique", "label": "", "brochure": null, "mail": "charaf.ebrahmi@gmail.com", "image": null, "grouping": "admin", "department": "Formation", "label_state": 0, "icon_name": null }, "geometry": { "type": "Point", "coordinates": [ -6.866274230980303, 33.978812661399743 ] } },
{ "type": "Feature", "properties": { "fid": null, "name": "grass", "label": "", "brochure": null, "mail": null, "image": null, "grouping": null, "department": null, "label_state": null, "icon_name": null }, "geometry": { "type": "Point", "coordinates": [ -6.865642708126902, 33.978139732712982 ] } },
{ "type": "Feature", "properties": { "fid": null, "name": "grass", "label": "", "brochure": null, "mail": null, "image": null, "grouping": null, "department": null, "label_state": null, "icon_name": null }, "geometry": { "type": "Point", "coordinates": [ -6.867478843119097, 33.974341038461063 ] } },
{ "type": "Feature", "properties": { "fid": null, "name": "grass", "label": "", "brochure": null, "mail": null, "image": null, "grouping": null, "department": null, "label_state": null, "icon_name": null }, "geometry": { "type": "Point", "coordinates": [ -6.864746696601673, 33.974346724676529 ] } },
{ "type": "Feature", "properties": { "fid": null, "name": "grass", "label": "", "brochure": null, "mail": null, "image": null, "grouping": null, "department": null, "label_state": null, "icon_name": null }, "geometry": { "type": "Point", "coordinates": [ -6.865709619406566, 33.974664574159334 ] } },
{ "type": "Feature", "properties": { "fid": null, "name": "grass", "label": "", "brochure": null, "mail": null, "image": null, "grouping": null, "department": null, "label_state": null, "icon_name": null }, "geometry": { "type": "Point", "coordinates": [ -6.86890603915511, 33.973335155255171 ] } },
{ "type": "Feature", "properties": { "fid": null, "name": "grass", "label": "", "brochure": null, "mail": null, "image": null, "grouping": null, "department": null, "label_state": null, "icon_name": null }, "geometry": { "type": "Point", "coordinates": [ -6.869454091590155, 33.973270676560823 ] } },
{ "type": "Feature", "properties": { "fid": null, "name": "grass", "label": "", "brochure": null, "mail": null, "image": null, "grouping": null, "department": null, "label_state": null, "icon_name": null }, "geometry": { "type": "Point", "coordinates": [ -6.868382604444617, 33.972573963713323 ] } },
{ "type": "Feature", "properties": { "fid": null, "name": "grass", "label": "", "brochure": null, "mail": null, "image": null, "grouping": null, "department": null, "label_state": null, "icon_name": null }, "geometry": { "type": "Point", "coordinates": [ -6.868346124364662, 33.972758224634916 ] } },
{ "type": "Feature", "properties": { "fid": null, "name": "grass", "label": "", "brochure": null, "mail": null, "image": null, "grouping": null, "department": null, "label_state": null, "icon_name": null }, "geometry": { "type": "Point", "coordinates": [ -6.868465917938026, 33.971834984584071 ] } },
{ "type": "Feature", "properties": { "fid": null, "name": "grass", "label": "", "brochure": null, "mail": null, "image": null, "grouping": null, "department": null, "label_state": null, "icon_name": null }, "geometry": { "type": "Point", "coordinates": [ -6.867678613992831, 33.971193104784824 ] } },
{ "type": "Feature", "properties": { "fid": null, "name": "grass", "label": "", "brochure": null, "mail": null, "image": null, "grouping": null, "department": null, "label_state": null, "icon_name": null }, "geometry": { "type": "Point", "coordinates": [ -6.866668653156306, 33.971791144119422 ] } },
{ "type": "Feature", "properties": { "fid": null, "name": "grass", "label": "", "brochure": null, "mail": null, "image": null, "grouping": null, "department": null, "label_state": null, "icon_name": null }, "geometry": { "type": "Point", "coordinates": [ -6.86661231872236, 33.977553548643279 ] } },
{ "type": "Feature", "properties": { "fid": null, "name": "grass", "label": "", "brochure": null, "mail": null, "image": null, "grouping": null, "department": null, "label_state": null, "icon_name": null }, "geometry": { "type": "Point", "coordinates": [ -6.866918675826006, 33.977058424224083 ] } },
{ "type": "Feature", "properties": { "fid": null, "name": "grass", "label": "", "brochure": null, "mail": null, "image": null, "grouping": null, "department": null, "label_state": null, "icon_name": null }, "geometry": { "type": "Point", "coordinates": [ -6.865388001372998, 33.977283104457058 ] } },
{ "type": "Feature", "properties": { "fid": null, "name": "tree", "label": "", "brochure": null, "mail": null, "image": null, "grouping": null, "department": null, "label_state": null, "icon_name": null }, "geometry": { "type": "Point", "coordinates": [ -6.864362570256803, 33.979151603576568 ] } },
{ "type": "Feature", "properties": { "fid": null, "name": "tree", "label": "", "brochure": null, "mail": null, "image": null, "grouping": null, "department": null, "label_state": null, "icon_name": null }, "geometry": { "type": "Point", "coordinates": [ -6.864008354859874, 33.979710320987067 ] } },
{ "type": "Feature", "properties": { "fid": null, "name": "tree", "label": "", "brochure": null, "mail": null, "image": null, "grouping": null, "department": null, "label_state": null, "icon_name": null }, "geometry": { "type": "Point", "coordinates": [ -6.863601255962305, 33.979835619151352 ] } },
{ "type": "Feature", "properties": { "fid": null, "name": "tree", "label": "", "brochure": null, "mail": null, "image": null, "grouping": null, "department": null, "label_state": null, "icon_name": null }, "geometry": { "type": "Point", "coordinates": [ -6.864205093540322, 33.980204339673172 ] } },
{ "type": "Feature", "properties": { "fid": null, "name": "tree", "label": "", "brochure": null, "mail": null, "image": null, "grouping": null, "department": null, "label_state": null, "icon_name": null }, "geometry": { "type": "Point", "coordinates": [ -6.864266145124602, 33.980136613431817 ] } },
{ "type": "Feature", "properties": { "fid": null, "name": "tree", "label": "", "brochure": null, "mail": null, "image": null, "grouping": null, "department": null, "label_state": null, "icon_name": null }, "geometry": { "type": "Point", "coordinates": [ -6.86435822730454, 33.979891221480877 ] } },
{ "type": "Feature", "properties": { "fid": null, "name": "tree", "label": "", "brochure": null, "mail": null, "image": null, "grouping": null, "department": null, "label_state": null, "icon_name": null }, "geometry": { "type": "Point", "coordinates": [ -6.864009240270974, 33.980859722130454 ] } },
{ "type": "Feature", "properties": { "fid": null, "name": "tree", "label": "", "brochure": null, "mail": null, "image": null, "grouping": null, "department": null, "label_state": null, "icon_name": null }, "geometry": { "type": "Point", "coordinates": [ -6.864101376158859, 33.980750867647018 ] } },
{ "type": "Feature", "properties": { "fid": null, "name": "tree", "label": "", "brochure": null, "mail": null, "image": null, "grouping": null, "department": null, "label_state": null, "icon_name": null }, "geometry": { "type": "Point", "coordinates": [ -6.86377421754563, 33.980765035813761 ] } },
{ "type": "Feature", "properties": { "fid": null, "name": "tree", "label": "", "brochure": null, "mail": null, "image": null, "grouping": null, "department": null, "label_state": null, "icon_name": null }, "geometry": { "type": "Point", "coordinates": [ -6.863705142234116, 33.980713741675999 ] } },
{ "type": "Feature", "properties": { "fid": null, "name": "tree", "label": "", "brochure": null, "mail": null, "image": null, "grouping": null, "department": null, "label_state": null, "icon_name": null }, "geometry": { "type": "Point", "coordinates": [ -6.863830523971783, 33.981415908327236 ] } },
{ "type": "Feature", "properties": { "fid": null, "name": "tree", "label": "", "brochure": null, "mail": null, "image": null, "grouping": null, "department": null, "label_state": null, "icon_name": null }, "geometry": { "type": "Point", "coordinates": [ -6.8640301307009, 33.98121735239387 ] } },
{ "type": "Feature", "properties": { "fid": null, "name": "tree", "label": "", "brochure": null, "mail": null, "image": null, "grouping": null, "department": null, "label_state": null, "icon_name": null }, "geometry": { "type": "Point", "coordinates": [ -6.864642397712066, 33.979607608289143 ] } },
{ "type": "Feature", "properties": { "fid": null, "name": "tree", "label": "", "brochure": null, "mail": null, "image": null, "grouping": null, "department": null, "label_state": null, "icon_name": null }, "geometry": { "type": "Point", "coordinates": [ -6.86449559445176, 33.978954774587265 ] } },
{ "type": "Feature", "properties": { "fid": null, "name": "tree", "label": "", "brochure": null, "mail": null, "image": null, "grouping": null, "department": null, "label_state": null, "icon_name": null }, "geometry": { "type": "Point", "coordinates": [ -6.862729499562749, 33.980428227592178 ] } },
{ "type": "Feature", "properties": { "fid": null, "name": "tree", "label": "", "brochure": null, "mail": null, "image": null, "grouping": null, "department": null, "label_state": null, "icon_name": null }, "geometry": { "type": "Point", "coordinates": [ -6.862959894385181, 33.980588570760467 ] } },
{ "type": "Feature", "properties": { "fid": null, "name": "tree", "label": "", "brochure": null, "mail": null, "image": null, "grouping": null, "department": null, "label_state": null, "icon_name": null }, "geometry": { "type": "Point", "coordinates": [ -6.863421206158153, 33.980312819978593 ] } },
{ "type": "Feature", "properties": { "fid": null, "name": "tree", "label": "", "brochure": null, "mail": null, "image": null, "grouping": null, "department": null, "label_state": null, "icon_name": null }, "geometry": { "type": "Point", "coordinates": [ -6.863335672869435, 33.980398859233567 ] } },
{ "type": "Feature", "properties": { "fid": null, "name": "tree", "label": "", "brochure": null, "mail": null, "image": null, "grouping": null, "department": null, "label_state": null, "icon_name": null }, "geometry": { "type": "Point", "coordinates": [ -6.862786613236303, 33.98063301627392 ] } },
{ "type": "Feature", "properties": { "fid": null, "name": "tree", "label": "", "brochure": null, "mail": null, "image": null, "grouping": null, "department": null, "label_state": null, "icon_name": null }, "geometry": { "type": "Point", "coordinates": [ -6.869624131869325, 33.975296590261188 ] } },
{ "type": "Feature", "properties": { "fid": null, "name": "tree", "label": "", "brochure": null, "mail": null, "image": null, "grouping": null, "department": null, "label_state": null, "icon_name": null }, "geometry": { "type": "Point", "coordinates": [ -6.869485002198078, 33.975381160707613 ] } },
{ "type": "Feature", "properties": { "fid": null, "name": "tree", "label": "", "brochure": null, "mail": null, "image": null, "grouping": null, "department": null, "label_state": null, "icon_name": null }, "geometry": { "type": "Point", "coordinates": [ -6.868846646032062, 33.975738103353279 ] } },
{ "type": "Feature", "properties": { "fid": null, "name": "tree", "label": "", "brochure": null, "mail": null, "image": null, "grouping": null, "department": null, "label_state": null, "icon_name": null }, "geometry": { "type": "Point", "coordinates": [ -6.868857522104206, 33.975815378093984 ] } },
{ "type": "Feature", "properties": { "fid": null, "name": "tree", "label": "", "brochure": null, "mail": null, "image": null, "grouping": null, "department": null, "label_state": null, "icon_name": null }, "geometry": { "type": "Point", "coordinates": [ -6.868636063855363, 33.976083164276396 ] } },
{ "type": "Feature", "properties": { "fid": null, "name": "tree", "label": "", "brochure": null, "mail": null, "image": null, "grouping": null, "department": null, "label_state": null, "icon_name": null }, "geometry": { "type": "Point", "coordinates": [ -6.868471401775215, 33.975982225735628 ] } },
{ "type": "Feature", "properties": { "fid": null, "name": "tree", "label": "", "brochure": null, "mail": null, "image": null, "grouping": null, "department": null, "label_state": null, "icon_name": null }, "geometry": { "type": "Point", "coordinates": [ -6.868385346268735, 33.975945605856928 ] } },
{ "type": "Feature", "properties": { "fid": null, "name": "tree", "label": "", "brochure": null, "mail": null, "image": null, "grouping": null, "department": null, "label_state": null, "icon_name": null }, "geometry": { "type": "Point", "coordinates": [ -6.868267873010437, 33.975852699631268 ] } },
{ "type": "Feature", "properties": { "fid": null, "name": "tree", "label": "", "brochure": null, "mail": null, "image": null, "grouping": null, "department": null, "label_state": null, "icon_name": null }, "geometry": { "type": "Point", "coordinates": [ -6.868384583157788, 33.975439501003009 ] } },
{ "type": "Feature", "properties": { "fid": null, "name": "tree", "label": "", "brochure": null, "mail": null, "image": null, "grouping": null, "department": null, "label_state": null, "icon_name": null }, "geometry": { "type": "Point", "coordinates": [ -6.868032190222311, 33.975172810066681 ] } },
{ "type": "Feature", "properties": { "fid": null, "name": "tree", "label": "", "brochure": null, "mail": null, "image": null, "grouping": null, "department": null, "label_state": null, "icon_name": null }, "geometry": { "type": "Point", "coordinates": [ -6.867892709766721, 33.975153948898907 ] } },
{ "type": "Feature", "properties": { "fid": null, "name": "tree", "label": "", "brochure": null, "mail": null, "image": null, "grouping": null, "department": null, "label_state": null, "icon_name": null }, "geometry": { "type": "Point", "coordinates": [ -6.867857725781915, 33.975083227678873 ] } },
{ "type": "Feature", "properties": { "fid": null, "name": "tree", "label": "", "brochure": null, "mail": null, "image": null, "grouping": null, "department": null, "label_state": null, "icon_name": null }, "geometry": { "type": "Point", "coordinates": [ -6.867755197293696, 33.974831760634807 ] } },
{ "type": "Feature", "properties": { "fid": null, "name": "tree", "label": "", "brochure": null, "mail": null, "image": null, "grouping": null, "department": null, "label_state": null, "icon_name": null }, "geometry": { "type": "Point", "coordinates": [ -6.867893692763678, 33.974697621430622 ] } },
{ "type": "Feature", "properties": { "fid": null, "name": "tree", "label": "", "brochure": null, "mail": null, "image": null, "grouping": null, "department": null, "label_state": null, "icon_name": null }, "geometry": { "type": "Point", "coordinates": [ -6.867736099790953, 33.974681196772359 ] } },
{ "type": "Feature", "properties": { "fid": null, "name": "tree", "label": "", "brochure": null, "mail": null, "image": null, "grouping": null, "department": null, "label_state": null, "icon_name": null }, "geometry": { "type": "Point", "coordinates": [ -6.867997362439564, 33.974428987525357 ] } },
{ "type": "Feature", "properties": { "fid": null, "name": "tree", "label": "", "brochure": null, "mail": null, "image": null, "grouping": null, "department": null, "label_state": null, "icon_name": null }, "geometry": { "type": "Point", "coordinates": [ -6.868172656838063, 33.974415942086985 ] } },
{ "type": "Feature", "properties": { "fid": null, "name": "tree", "label": "", "brochure": null, "mail": null, "image": null, "grouping": null, "department": null, "label_state": null, "icon_name": null }, "geometry": { "type": "Point", "coordinates": [ -6.867945833929625, 33.974000867940354 ] } },
{ "type": "Feature", "properties": { "fid": null, "name": "tree", "label": "", "brochure": null, "mail": null, "image": null, "grouping": null, "department": null, "label_state": null, "icon_name": null }, "geometry": { "type": "Point", "coordinates": [ -6.867754941935695, 33.973933429265102 ] } },
{ "type": "Feature", "properties": { "fid": null, "name": "tree", "label": "", "brochure": null, "mail": null, "image": null, "grouping": null, "department": null, "label_state": null, "icon_name": null }, "geometry": { "type": "Point", "coordinates": [ -6.867590351987336, 33.973812333270558 ] } },
{ "type": "Feature", "properties": { "fid": null, "name": "tree", "label": "", "brochure": null, "mail": null, "image": null, "grouping": null, "department": null, "label_state": null, "icon_name": null }, "geometry": { "type": "Point", "coordinates": [ -6.867569831425781, 33.973682641964679 ] } },
{ "type": "Feature", "properties": { "fid": null, "name": "tree", "label": "", "brochure": null, "mail": null, "image": null, "grouping": null, "department": null, "label_state": null, "icon_name": null }, "geometry": { "type": "Point", "coordinates": [ -6.867712026064752, 33.973827289434062 ] } },
{ "type": "Feature", "properties": { "fid": null, "name": "tree", "label": "", "brochure": null, "mail": null, "image": null, "grouping": null, "department": null, "label_state": null, "icon_name": null }, "geometry": { "type": "Point", "coordinates": [ -6.865869360693241, 33.97441164481809 ] } },
{ "type": "Feature", "properties": { "fid": null, "name": "tree", "label": "", "brochure": null, "mail": null, "image": null, "grouping": null, "department": null, "label_state": null, "icon_name": null }, "geometry": { "type": "Point", "coordinates": [ -6.86524308076937, 33.974971155865795 ] } },
{ "type": "Feature", "properties": { "fid": null, "name": "tree", "label": "", "brochure": null, "mail": null, "image": null, "grouping": null, "department": null, "label_state": null, "icon_name": null }, "geometry": { "type": "Point", "coordinates": [ -6.864598028501617, 33.974489240370154 ] } },
{ "type": "Feature", "properties": { "fid": null, "name": "tree", "label": "", "brochure": null, "mail": null, "image": null, "grouping": null, "department": null, "label_state": null, "icon_name": null }, "geometry": { "type": "Point", "coordinates": [ -6.865296506195094, 33.97829657173223 ] } },
{ "type": "Feature", "properties": { "fid": null, "name": "tree", "label": "", "brochure": null, "mail": null, "image": null, "grouping": null, "department": null, "label_state": null, "icon_name": null }, "geometry": { "type": "Point", "coordinates": [ -6.865492581434344, 33.978015905048537 ] } },
{ "type": "Feature", "properties": { "fid": null, "name": "tree", "label": "", "brochure": null, "mail": null, "image": null, "grouping": null, "department": null, "label_state": null, "icon_name": null }, "geometry": { "type": "Point", "coordinates": [ -6.865600265274659, 33.977892499035313 ] } },
{ "type": "Feature", "properties": { "fid": null, "name": "tree", "label": "", "brochure": null, "mail": null, "image": null, "grouping": null, "department": null, "label_state": null, "icon_name": null }, "geometry": { "type": "Point", "coordinates": [ -6.864086490692252, 33.980338894138427 ] } },
{ "type": "Feature", "properties": { "fid": null, "name": "tree", "label": "", "brochure": null, "mail": null, "image": null, "grouping": null, "department": null, "label_state": null, "icon_name": null }, "geometry": { "type": "Point", "coordinates": [ -6.863770170687551, 33.98050402463258 ] } },
{ "type": "Feature", "properties": { "fid": null, "name": "tree", "label": "", "brochure": null, "mail": null, "image": null, "grouping": null, "department": null, "label_state": null, "icon_name": null }, "geometry": { "type": "Point", "coordinates": [ -6.863602642384277, 33.980657758824144 ] } },
{ "type": "Feature", "properties": { "fid": null, "name": "tree", "label": "", "brochure": null, "mail": null, "image": null, "grouping": null, "department": null, "label_state": null, "icon_name": null }, "geometry": { "type": "Point", "coordinates": [ -6.863682491240652, 33.980350546191517 ] } },
{ "type": "Feature", "properties": { "fid": null, "name": "tree", "label": "", "brochure": null, "mail": null, "image": null, "grouping": null, "department": null, "label_state": null, "icon_name": null }, "geometry": { "type": "Point", "coordinates": [ -6.86322024104281, 33.980970738741235 ] } },
{ "type": "Feature", "properties": { "fid": null, "name": "tree", "label": "", "brochure": null, "mail": null, "image": null, "grouping": null, "department": null, "label_state": null, "icon_name": null }, "geometry": { "type": "Point", "coordinates": [ -6.864201450523195, 33.981065101152481 ] } },
{ "type": "Feature", "properties": { "fid": null, "name": "tree", "label": "", "brochure": null, "mail": null, "image": null, "grouping": null, "department": null, "label_state": null, "icon_name": null }, "geometry": { "type": "Point", "coordinates": [ -6.864273426596498, 33.981027728193943 ] } },
{ "type": "Feature", "properties": { "fid": null, "name": "tree", "label": "", "brochure": null, "mail": null, "image": null, "grouping": null, "department": null, "label_state": null, "icon_name": null }, "geometry": { "type": "Point", "coordinates": [ -6.864092982603061, 33.981137744546871 ] } },
{ "type": "Feature", "properties": { "fid": null, "name": "tree", "label": "", "brochure": null, "mail": null, "image": null, "grouping": null, "department": null, "label_state": null, "icon_name": null }, "geometry": { "type": "Point", "coordinates": [ -6.864325703613765, 33.980950218654655 ] } },
{ "type": "Feature", "properties": { "fid": null, "name": "tree", "label": "", "brochure": null, "mail": null, "image": null, "grouping": null, "department": null, "label_state": null, "icon_name": null }, "geometry": { "type": "Point", "coordinates": [ -6.864282433642988, 33.980699145243833 ] } },
{ "type": "Feature", "properties": { "fid": null, "name": "tree", "label": "", "brochure": null, "mail": null, "image": null, "grouping": null, "department": null, "label_state": null, "icon_name": null }, "geometry": { "type": "Point", "coordinates": [ -6.86441410654946, 33.980559273336368 ] } },
{ "type": "Feature", "properties": { "fid": null, "name": "tree", "label": "", "brochure": null, "mail": null, "image": null, "grouping": null, "department": null, "label_state": null, "icon_name": null }, "geometry": { "type": "Point", "coordinates": [ -6.864458108872618, 33.980399155905623 ] } },
{ "type": "Feature", "properties": { "fid": null, "name": "tree", "label": "", "brochure": null, "mail": null, "image": null, "grouping": null, "department": null, "label_state": null, "icon_name": null }, "geometry": { "type": "Point", "coordinates": [ -6.864775935237903, 33.980346978993772 ] } },
{ "type": "Feature", "properties": { "fid": null, "name": "tree", "label": "", "brochure": null, "mail": null, "image": null, "grouping": null, "department": null, "label_state": null, "icon_name": null }, "geometry": { "type": "Point", "coordinates": [ -6.864834340856017, 33.980260529091346 ] } },
{ "type": "Feature", "properties": { "fid": null, "name": "tree", "label": "", "brochure": null, "mail": null, "image": null, "grouping": null, "department": null, "label_state": null, "icon_name": null }, "geometry": { "type": "Point", "coordinates": [ -6.864419112086118, 33.980085464831248 ] } },
{ "type": "Feature", "properties": { "fid": null, "name": "tree", "label": "", "brochure": null, "mail": null, "image": null, "grouping": null, "department": null, "label_state": null, "icon_name": null }, "geometry": { "type": "Point", "coordinates": [ -6.864568503658011, 33.980070107612548 ] } },
{ "type": "Feature", "properties": { "fid": null, "name": "tree", "label": "", "brochure": null, "mail": null, "image": null, "grouping": null, "department": null, "label_state": null, "icon_name": null }, "geometry": { "type": "Point", "coordinates": [ -6.864500572907891, 33.980128792467518 ] } },
{ "type": "Feature", "properties": { "fid": null, "name": "tree", "label": "", "brochure": null, "mail": null, "image": null, "grouping": null, "department": null, "label_state": null, "icon_name": null }, "geometry": { "type": "Point", "coordinates": [ -6.86452779036097, 33.980121074148279 ] } },
{ "type": "Feature", "properties": { "fid": null, "name": "tree", "label": "", "brochure": null, "mail": null, "image": null, "grouping": null, "department": null, "label_state": null, "icon_name": null }, "geometry": { "type": "Point", "coordinates": [ -6.863767065155706, 33.979644135528581 ] } },
{ "type": "Feature", "properties": { "fid": null, "name": "tree", "label": "", "brochure": null, "mail": null, "image": null, "grouping": null, "department": null, "label_state": null, "icon_name": null }, "geometry": { "type": "Point", "coordinates": [ -6.863886332571283, 33.979337494546776 ] } },
{ "type": "Feature", "properties": { "fid": null, "name": "tree", "label": "", "brochure": null, "mail": null, "image": null, "grouping": null, "department": null, "label_state": null, "icon_name": null }, "geometry": { "type": "Point", "coordinates": [ -6.863388950270395, 33.979788031468971 ] } },
{ "type": "Feature", "properties": { "fid": null, "name": "tree", "label": "", "brochure": null, "mail": null, "image": null, "grouping": null, "department": null, "label_state": null, "icon_name": null }, "geometry": { "type": "Point", "coordinates": [ -6.863506552909469, 33.979671908253181 ] } },
{ "type": "Feature", "properties": { "fid": null, "name": "tree", "label": "", "brochure": null, "mail": null, "image": null, "grouping": null, "department": null, "label_state": null, "icon_name": null }, "geometry": { "type": "Point", "coordinates": [ -6.863285315874137, 33.979607332276828 ] } },
{ "type": "Feature", "properties": { "fid": null, "name": "tree", "label": "", "brochure": null, "mail": null, "image": null, "grouping": null, "department": null, "label_state": null, "icon_name": null }, "geometry": { "type": "Point", "coordinates": [ -6.863091065029372, 33.979470997256136 ] } },
{ "type": "Feature", "properties": { "fid": null, "name": "tree", "label": "", "brochure": null, "mail": null, "image": null, "grouping": null, "department": null, "label_state": null, "icon_name": null }, "geometry": { "type": "Point", "coordinates": [ -6.862875542437336, 33.97953315499592 ] } },
{ "type": "Feature", "properties": { "fid": null, "name": "tree", "label": "", "brochure": null, "mail": null, "image": null, "grouping": null, "department": null, "label_state": null, "icon_name": null }, "geometry": { "type": "Point", "coordinates": [ -6.862757365291177, 33.979629777316759 ] } },
{ "type": "Feature", "properties": { "fid": null, "name": "tree", "label": "", "brochure": null, "mail": null, "image": null, "grouping": null, "department": null, "label_state": null, "icon_name": null }, "geometry": { "type": "Point", "coordinates": [ -6.863286133177004, 33.979181999177165 ] } },
{ "type": "Feature", "properties": { "fid": null, "name": "tree", "label": "", "brochure": null, "mail": null, "image": null, "grouping": null, "department": null, "label_state": null, "icon_name": null }, "geometry": { "type": "Point", "coordinates": [ -6.863498711336204, 33.979296932399357 ] } },
{ "type": "Feature", "properties": { "fid": null, "name": "tree", "label": "", "brochure": null, "mail": null, "image": null, "grouping": null, "department": null, "label_state": null, "icon_name": null }, "geometry": { "type": "Point", "coordinates": [ -6.866132987321442, 33.978554151591283 ] } },
{ "type": "Feature", "properties": { "fid": null, "name": "tree", "label": "", "brochure": null, "mail": null, "image": null, "grouping": null, "department": null, "label_state": null, "icon_name": null }, "geometry": { "type": "Point", "coordinates": [ -6.866969636732757, 33.977742232179942 ] } },
{ "type": "Feature", "properties": { "fid": null, "name": "tree", "label": "", "brochure": null, "mail": null, "image": null, "grouping": null, "department": null, "label_state": null, "icon_name": null }, "geometry": { "type": "Point", "coordinates": [ -6.866826440884543, 33.976879468653671 ] } },
{ "type": "Feature", "properties": { "fid": null, "name": "tree", "label": "", "brochure": null, "mail": null, "image": null, "grouping": null, "department": null, "label_state": null, "icon_name": null }, "geometry": { "type": "Point", "coordinates": [ -6.866507125308411, 33.976605761203437 ] } },
{ "type": "Feature", "properties": { "fid": null, "name": "tree", "label": "", "brochure": null, "mail": null, "image": null, "grouping": null, "department": null, "label_state": null, "icon_name": null }, "geometry": { "type": "Point", "coordinates": [ -6.867767010852457, 33.976830473982986 ] } },
{ "type": "Feature", "properties": { "fid": null, "name": "tree", "label": "", "brochure": null, "mail": null, "image": null, "grouping": null, "department": null, "label_state": null, "icon_name": null }, "geometry": { "type": "Point", "coordinates": [ -6.86732774732776, 33.976514597899424 ] } },
{ "type": "Feature", "properties": { "fid": null, "name": "tree", "label": "", "brochure": null, "mail": null, "image": null, "grouping": null, "department": null, "label_state": null, "icon_name": null }, "geometry": { "type": "Point", "coordinates": [ -6.867250162619001, 33.976784028663808 ] } },
{ "type": "Feature", "properties": { "fid": null, "name": "tree", "label": "", "brochure": null, "mail": null, "image": null, "grouping": null, "department": null, "label_state": null, "icon_name": null }, "geometry": { "type": "Point", "coordinates": [ -6.867213716708081, 33.976086058520195 ] } },
{ "type": "Feature", "properties": { "fid": null, "name": "tree", "label": "", "brochure": null, "mail": null, "image": null, "grouping": null, "department": null, "label_state": null, "icon_name": null }, "geometry": { "type": "Point", "coordinates": [ -6.867380519945932, 33.975988620365882 ] } },
{ "type": "Feature", "properties": { "fid": null, "name": "tree", "label": "", "brochure": null, "mail": null, "image": null, "grouping": null, "department": null, "label_state": null, "icon_name": null }, "geometry": { "type": "Point", "coordinates": [ -6.866697531235132, 33.976299406418065 ] } },
{ "type": "Feature", "properties": { "fid": null, "name": "tree", "label": "", "brochure": null, "mail": null, "image": null, "grouping": null, "department": null, "label_state": null, "icon_name": null }, "geometry": { "type": "Point", "coordinates": [ -6.866402795769058, 33.976309934379799 ] } },
{ "type": "Feature", "properties": { "fid": null, "name": "tree", "label": "", "brochure": null, "mail": null, "image": null, "grouping": null, "department": null, "label_state": null, "icon_name": null }, "geometry": { "type": "Point", "coordinates": [ -6.86642102812905, 33.976413762080234 ] } },
{ "type": "Feature", "properties": { "fid": null, "name": "tree", "label": "", "brochure": null, "mail": null, "image": null, "grouping": null, "department": null, "label_state": null, "icon_name": null }, "geometry": { "type": "Point", "coordinates": [ -6.866359850236361, 33.975682891345045 ] } },
{ "type": "Feature", "properties": { "fid": null, "name": "tree", "label": "", "brochure": null, "mail": null, "image": null, "grouping": null, "department": null, "label_state": null, "icon_name": null }, "geometry": { "type": "Point", "coordinates": [ -6.865899556299829, 33.975588041685377 ] } },
{ "type": "Feature", "properties": { "fid": null, "name": "tree", "label": "", "brochure": null, "mail": null, "image": null, "grouping": null, "department": null, "label_state": null, "icon_name": null }, "geometry": { "type": "Point", "coordinates": [ -6.865898728746475, 33.975386005354572 ] } },
{ "type": "Feature", "properties": { "fid": null, "name": "tree", "label": "", "brochure": null, "mail": null, "image": null, "grouping": null, "department": null, "label_state": null, "icon_name": null }, "geometry": { "type": "Point", "coordinates": [ -6.865369754990542, 33.975056668760054 ] } },
{ "type": "Feature", "properties": { "fid": null, "name": "tree", "label": "", "brochure": null, "mail": null, "image": null, "grouping": null, "department": null, "label_state": null, "icon_name": null }, "geometry": { "type": "Point", "coordinates": [ -6.865161718613707, 33.97523037860423 ] } },
{ "type": "Feature", "properties": { "fid": null, "name": "tree", "label": "", "brochure": null, "mail": null, "image": null, "grouping": null, "department": null, "label_state": null, "icon_name": null }, "geometry": { "type": "Point", "coordinates": [ -6.866034224495684, 33.974310161962798 ] } },
{ "type": "Feature", "properties": { "fid": null, "name": "tree", "label": "", "brochure": null, "mail": null, "image": null, "grouping": null, "department": null, "label_state": null, "icon_name": null }, "geometry": { "type": "Point", "coordinates": [ -6.866652780874791, 33.974276115907479 ] } },
{ "type": "Feature", "properties": { "fid": null, "name": "tree", "label": "", "brochure": null, "mail": null, "image": null, "grouping": null, "department": null, "label_state": null, "icon_name": null }, "geometry": { "type": "Point", "coordinates": [ -6.866757417877554, 33.974169206990176 ] } },
{ "type": "Feature", "properties": { "fid": null, "name": "tree", "label": "", "brochure": null, "mail": null, "image": null, "grouping": null, "department": null, "label_state": null, "icon_name": null }, "geometry": { "type": "Point", "coordinates": [ -6.869087478429011, 33.974780248002666 ] } },
{ "type": "Feature", "properties": { "fid": null, "name": "tree", "label": "", "brochure": null, "mail": null, "image": null, "grouping": null, "department": null, "label_state": null, "icon_name": null }, "geometry": { "type": "Point", "coordinates": [ -6.869011496460745, 33.975701580651588 ] } },
{ "type": "Feature", "properties": { "fid": null, "name": "tree", "label": "", "brochure": null, "mail": null, "image": null, "grouping": null, "department": null, "label_state": null, "icon_name": null }, "geometry": { "type": "Point", "coordinates": [ -6.868725778235923, 33.976019623579688 ] } },
{ "type": "Feature", "properties": { "fid": null, "name": "tree", "label": "", "brochure": null, "mail": null, "image": null, "grouping": null, "department": null, "label_state": null, "icon_name": null }, "geometry": { "type": "Point", "coordinates": [ -6.868760855007047, 33.975975749344798 ] } },
{ "type": "Feature", "properties": { "fid": null, "name": "tree", "label": "", "brochure": null, "mail": null, "image": null, "grouping": null, "department": null, "label_state": null, "icon_name": null }, "geometry": { "type": "Point", "coordinates": [ -6.868822069551069, 33.97592123961342 ] } },
{ "type": "Feature", "properties": { "fid": null, "name": "tree", "label": "", "brochure": null, "mail": null, "image": null, "grouping": null, "department": null, "label_state": null, "icon_name": null }, "geometry": { "type": "Point", "coordinates": [ -6.868175907413919, 33.975791316939485 ] } },
{ "type": "Feature", "properties": { "fid": null, "name": "tree", "label": "", "brochure": null, "mail": null, "image": null, "grouping": null, "department": null, "label_state": null, "icon_name": null }, "geometry": { "type": "Point", "coordinates": [ -6.868063366390023, 33.975555435223619 ] } },
{ "type": "Feature", "properties": { "fid": null, "name": "tree", "label": "", "brochure": null, "mail": null, "image": null, "grouping": null, "department": null, "label_state": null, "icon_name": null }, "geometry": { "type": "Point", "coordinates": [ -6.868018857067642, 33.975421460304375 ] } },
{ "type": "Feature", "properties": { "fid": null, "name": "tree", "label": "", "brochure": null, "mail": null, "image": null, "grouping": null, "department": null, "label_state": null, "icon_name": null }, "geometry": { "type": "Point", "coordinates": [ -6.86798511442214, 33.975346122638101 ] } },
{ "type": "Feature", "properties": { "fid": null, "name": "tree", "label": "", "brochure": null, "mail": null, "image": null, "grouping": null, "department": null, "label_state": null, "icon_name": null }, "geometry": { "type": "Point", "coordinates": [ -6.866835267274504, 33.976176761762353 ] } },
{ "type": "Feature", "properties": { "fid": null, "name": "tree", "label": "", "brochure": null, "mail": null, "image": null, "grouping": null, "department": null, "label_state": null, "icon_name": null }, "geometry": { "type": "Point", "coordinates": [ -6.866907530836846, 33.976070790559824 ] } },
{ "type": "Feature", "properties": { "fid": null, "name": "tree", "label": "", "brochure": null, "mail": null, "image": null, "grouping": null, "department": null, "label_state": null, "icon_name": null }, "geometry": { "type": "Point", "coordinates": [ -6.866756306349483, 33.975861041863396 ] } },
{ "type": "Feature", "properties": { "fid": null, "name": "tree", "label": "", "brochure": null, "mail": null, "image": null, "grouping": null, "department": null, "label_state": null, "icon_name": null }, "geometry": { "type": "Point", "coordinates": [ -6.866550335459569, 33.976048714508281 ] } },
{ "type": "Feature", "properties": { "fid": null, "name": "tree", "label": "", "brochure": null, "mail": null, "image": null, "grouping": null, "department": null, "label_state": null, "icon_name": null }, "geometry": { "type": "Point", "coordinates": [ -6.866447822022847, 33.975965968269477 ] } },
{ "type": "Feature", "properties": { "fid": null, "name": "tree", "label": "", "brochure": null, "mail": null, "image": null, "grouping": null, "department": null, "label_state": null, "icon_name": null }, "geometry": { "type": "Point", "coordinates": [ -6.866309625827531, 33.975910304541095 ] } },
{ "type": "Feature", "properties": { "fid": null, "name": "tree", "label": "", "brochure": null, "mail": null, "image": null, "grouping": null, "department": null, "label_state": null, "icon_name": null }, "geometry": { "type": "Point", "coordinates": [ -6.866655715192472, 33.976080992021352 ] } },
{ "type": "Feature", "properties": { "fid": null, "name": "tree", "label": "", "brochure": null, "mail": null, "image": null, "grouping": null, "department": null, "label_state": null, "icon_name": null }, "geometry": { "type": "Point", "coordinates": [ -6.866942467865403, 33.975650084152555 ] } },
{ "type": "Feature", "properties": { "fid": null, "name": "tree", "label": "", "brochure": null, "mail": null, "image": null, "grouping": null, "department": null, "label_state": null, "icon_name": null }, "geometry": { "type": "Point", "coordinates": [ -6.867032361270502, 33.975712244698727 ] } },
{ "type": "Feature", "properties": { "fid": null, "name": "tree", "label": "", "brochure": null, "mail": null, "image": null, "grouping": null, "department": null, "label_state": null, "icon_name": null }, "geometry": { "type": "Point", "coordinates": [ -6.866559419827763, 33.975853958892806 ] } },
{ "type": "Feature", "properties": { "fid": null, "name": "tree", "label": "", "brochure": null, "mail": null, "image": null, "grouping": null, "department": null, "label_state": null, "icon_name": null }, "geometry": { "type": "Point", "coordinates": [ -6.86648214335624, 33.97411432750765 ] } },
{ "type": "Feature", "properties": { "fid": null, "name": "tree", "label": "", "brochure": null, "mail": null, "image": null, "grouping": null, "department": null, "label_state": null, "icon_name": null }, "geometry": { "type": "Point", "coordinates": [ -6.866674581322341, 33.973916372100625 ] } },
{ "type": "Feature", "properties": { "fid": null, "name": "tree", "label": "", "brochure": null, "mail": null, "image": null, "grouping": null, "department": null, "label_state": null, "icon_name": null }, "geometry": { "type": "Point", "coordinates": [ -6.866802067591131, 33.973978957478984 ] } },
{ "type": "Feature", "properties": { "fid": null, "name": "tree", "label": "", "brochure": null, "mail": null, "image": null, "grouping": null, "department": null, "label_state": null, "icon_name": null }, "geometry": { "type": "Point", "coordinates": [ -6.866200999245049, 33.974271675302141 ] } },
{ "type": "Feature", "properties": { "fid": null, "name": "tree", "label": "", "brochure": null, "mail": null, "image": null, "grouping": null, "department": null, "label_state": null, "icon_name": null }, "geometry": { "type": "Point", "coordinates": [ -6.866503688458867, 33.974527542991204 ] } },
{ "type": "Feature", "properties": { "fid": null, "name": "tree", "label": "", "brochure": null, "mail": null, "image": null, "grouping": null, "department": null, "label_state": null, "icon_name": null }, "geometry": { "type": "Point", "coordinates": [ -6.866381795280601, 33.974348091788293 ] } },
{ "type": "Feature", "properties": { "fid": null, "name": "tree", "label": "", "brochure": null, "mail": null, "image": null, "grouping": null, "department": null, "label_state": null, "icon_name": null }, "geometry": { "type": "Point", "coordinates": [ -6.8646798614511, 33.974943966581705 ] } },
{ "type": "Feature", "properties": { "fid": null, "name": "tree", "label": "", "brochure": null, "mail": null, "image": null, "grouping": null, "department": null, "label_state": null, "icon_name": null }, "geometry": { "type": "Point", "coordinates": [ -6.863996441966419, 33.974467101977289 ] } },
{ "type": "Feature", "properties": { "fid": null, "name": "tree", "label": "", "brochure": null, "mail": null, "image": null, "grouping": null, "department": null, "label_state": null, "icon_name": null }, "geometry": { "type": "Point", "coordinates": [ -6.863881276624904, 33.974564674196714 ] } },
{ "type": "Feature", "properties": { "fid": null, "name": "tree", "label": "", "brochure": null, "mail": null, "image": null, "grouping": null, "department": null, "label_state": null, "icon_name": null }, "geometry": { "type": "Point", "coordinates": [ -6.864211706534538, 33.974243157669974 ] } },
{ "type": "Feature", "properties": { "fid": null, "name": "tree", "label": "", "brochure": null, "mail": null, "image": null, "grouping": null, "department": null, "label_state": null, "icon_name": null }, "geometry": { "type": "Point", "coordinates": [ -6.864095718867032, 33.974724560834993 ] } },
{ "type": "Feature", "properties": { "fid": null, "name": "tree", "label": "", "brochure": null, "mail": null, "image": null, "grouping": null, "department": null, "label_state": null, "icon_name": null }, "geometry": { "type": "Point", "coordinates": [ -6.863995678880944, 33.974662054635736 ] } },
{ "type": "Feature", "properties": { "fid": null, "name": "tree", "label": "", "brochure": null, "mail": null, "image": null, "grouping": null, "department": null, "label_state": null, "icon_name": null }, "geometry": { "type": "Point", "coordinates": [ -6.866354410253964, 33.972807242813737 ] } },
{ "type": "Feature", "properties": { "fid": null, "name": "tree", "label": "", "brochure": null, "mail": null, "image": null, "grouping": null, "department": null, "label_state": null, "icon_name": null }, "geometry": { "type": "Point", "coordinates": [ -6.86745312639013, 33.970851000408196 ] } },
{ "type": "Feature", "properties": { "fid": null, "name": "tree", "label": "", "brochure": null, "mail": null, "image": null, "grouping": null, "department": null, "label_state": null, "icon_name": null }, "geometry": { "type": "Point", "coordinates": [ -6.867357589617847, 33.970967365203144 ] } },
{ "type": "Feature", "properties": { "fid": null, "name": "tree", "label": "", "brochure": null, "mail": null, "image": null, "grouping": null, "department": null, "label_state": null, "icon_name": null }, "geometry": { "type": "Point", "coordinates": [ -6.867149777590145, 33.971193091290253 ] } },
{ "type": "Feature", "properties": { "fid": null, "name": "tree", "label": "", "brochure": null, "mail": null, "image": null, "grouping": null, "department": null, "label_state": null, "icon_name": null }, "geometry": { "type": "Point", "coordinates": [ -6.867027812790234, 33.97131770955626 ] } },
{ "type": "Feature", "properties": { "fid": null, "name": "tree", "label": "", "brochure": null, "mail": null, "image": null, "grouping": null, "department": null, "label_state": null, "icon_name": null }, "geometry": { "type": "Point", "coordinates": [ -6.867980697569331, 33.973635806211547 ] } },
{ "type": "Feature", "properties": { "fid": null, "name": "tree", "label": "", "brochure": null, "mail": null, "image": null, "grouping": null, "department": null, "label_state": null, "icon_name": null }, "geometry": { "type": "Point", "coordinates": [ -6.867704032858427, 33.973492625472026 ] } },
{ "type": "Feature", "properties": { "fid": null, "name": "tree", "label": "", "brochure": null, "mail": null, "image": null, "grouping": null, "department": null, "label_state": null, "icon_name": null }, "geometry": { "type": "Point", "coordinates": [ -6.867939523923563, 33.973274779840658 ] } },
{ "type": "Feature", "properties": { "fid": null, "name": "tree", "label": "", "brochure": null, "mail": null, "image": null, "grouping": null, "department": null, "label_state": null, "icon_name": null }, "geometry": { "type": "Point", "coordinates": [ -6.868193684281803, 33.973458363109749 ] } },
{ "type": "Feature", "properties": { "fid": null, "name": "tree", "label": "", "brochure": null, "mail": null, "image": null, "grouping": null, "department": null, "label_state": null, "icon_name": null }, "geometry": { "type": "Point", "coordinates": [ -6.868094062975842, 33.973641841710844 ] } },
{ "type": "Feature", "properties": { "fid": null, "name": "tree", "label": "", "brochure": null, "mail": null, "image": null, "grouping": null, "department": null, "label_state": null, "icon_name": null }, "geometry": { "type": "Point", "coordinates": [ -6.868143599254053, 33.9736809538636 ] } },
{ "type": "Feature", "properties": { "fid": null, "name": "tree", "label": "", "brochure": null, "mail": null, "image": null, "grouping": null, "department": null, "label_state": null, "icon_name": null }, "geometry": { "type": "Point", "coordinates": [ -6.869341240233863, 33.974531678691548 ] } },
{ "type": "Feature", "properties": { "fid": null, "name": "", "label": "", "brochure": null, "mail": null, "image": null, "grouping": null, "department": null, "label_state": null, "icon_name": null }, "geometry": { "type": "Point", "coordinates": [ -6.863200234722641, 33.98023859717285 ] } },
{ "type": "Feature", "properties": { "fid": null, "name": "", "label": "", "brochure": null, "mail": null, "image": null, "grouping": null, "department": null, "label_state": null, "icon_name": null }, "geometry": { "type": "Point", "coordinates": [ -6.863190992533866, 33.980411410000556 ] } },
{ "type": "Feature", "properties": { "fid": null, "name": "", "label": "", "brochure": null, "mail": null, "image": null, "grouping": null, "department": null, "label_state": null, "icon_name": null }, "geometry": { "type": "Point", "coordinates": [ -6.862991286236544, 33.980153431230264 ] } },
{ "type": "Feature", "properties": { "fid": null, "name": "", "label": "", "brochure": null, "mail": null, "image": null, "grouping": null, "department": null, "label_state": null, "icon_name": null }, "geometry": { "type": "Point", "coordinates": [ -6.863058812051551, 33.980511624165885 ] } },
{ "type": "Feature", "properties": { "fid": null, "name": "", "label": "", "brochure": null, "mail": null, "image": null, "grouping": null, "department": null, "label_state": null, "icon_name": null }, "geometry": { "type": "Point", "coordinates": [ -6.863097587303974, 33.980308641661587 ] } },
{ "type": "Feature", "properties": { "fid": null, "name": "", "label": "", "brochure": null, "mail": null, "image": null, "grouping": null, "department": null, "label_state": null, "icon_name": null }, "geometry": { "type": "Point", "coordinates": [ -6.864020707396305, 33.980234689732605 ] } },
{ "type": "Feature", "properties": { "fid": null, "name": "", "label": "", "brochure": null, "mail": null, "image": null, "grouping": null, "department": null, "label_state": null, "icon_name": null }, "geometry": { "type": "Point", "coordinates": [ -6.864261362001346, 33.980011604616607 ] } },
{ "type": "Feature", "properties": { "fid": null, "name": "", "label": "", "brochure": null, "mail": null, "image": null, "grouping": null, "department": null, "label_state": null, "icon_name": null }, "geometry": { "type": "Point", "coordinates": [ -6.864491775482054, 33.980728335940526 ] } },
{ "type": "Feature", "properties": { "fid": null, "name": "", "label": "", "brochure": null, "mail": null, "image": null, "grouping": null, "department": null, "label_state": null, "icon_name": null }, "geometry": { "type": "Point", "coordinates": [ -6.8644679849058, 33.97883500694698 ] } },
{ "type": "Feature", "properties": { "fid": null, "name": "", "label": "", "brochure": null, "mail": null, "image": null, "grouping": null, "department": null, "label_state": null, "icon_name": null }, "geometry": { "type": "Point", "coordinates": [ -6.864094822786666, 33.978877433149329 ] } },
{ "type": "Feature", "properties": { "fid": null, "name": "", "label": "", "brochure": null, "mail": null, "image": null, "grouping": null, "department": null, "label_state": null, "icon_name": null }, "geometry": { "type": "Point", "coordinates": [ -6.864025072294616, 33.978406345658016 ] } },
{ "type": "Feature", "properties": { "fid": null, "name": "", "label": "", "brochure": null, "mail": null, "image": null, "grouping": null, "department": null, "label_state": null, "icon_name": null }, "geometry": { "type": "Point", "coordinates": [ -6.864234246086536, 33.978315850952541 ] } },
{ "type": "Feature", "properties": { "fid": null, "name": "", "label": "", "brochure": null, "mail": null, "image": null, "grouping": null, "department": null, "label_state": null, "icon_name": null }, "geometry": { "type": "Point", "coordinates": [ -6.864592969813381, 33.978019006808381 ] } },
{ "type": "Feature", "properties": { "fid": null, "name": "", "label": "", "brochure": null, "mail": null, "image": null, "grouping": null, "department": null, "label_state": null, "icon_name": null }, "geometry": { "type": "Point", "coordinates": [ -6.864600240788674, 33.977844856630121 ] } },
{ "type": "Feature", "properties": { "fid": null, "name": "", "label": "", "brochure": null, "mail": null, "image": null, "grouping": null, "department": null, "label_state": null, "icon_name": null }, "geometry": { "type": "Point", "coordinates": [ -6.865849302502789, 33.977684940529493 ] } },
{ "type": "Feature", "properties": { "fid": null, "name": "", "label": "", "brochure": null, "mail": null, "image": null, "grouping": null, "department": null, "label_state": null, "icon_name": null }, "geometry": { "type": "Point", "coordinates": [ -6.864690276848442, 33.978636031902028 ] } },
{ "type": "Feature", "properties": { "fid": null, "name": "", "label": "", "brochure": null, "mail": null, "image": null, "grouping": null, "department": null, "label_state": null, "icon_name": null }, "geometry": { "type": "Point", "coordinates": [ -6.866140579213887, 33.977657865024781 ] } },
{ "type": "Feature", "properties": { "fid": null, "name": "", "label": "", "brochure": null, "mail": null, "image": null, "grouping": null, "department": null, "label_state": null, "icon_name": null }, "geometry": { "type": "Point", "coordinates": [ -6.866380381405448, 33.977552140629548 ] } },
{ "type": "Feature", "properties": { "fid": null, "name": "", "label": "", "brochure": null, "mail": null, "image": null, "grouping": null, "department": null, "label_state": null, "icon_name": null }, "geometry": { "type": "Point", "coordinates": [ -6.866283704861822, 33.977458072668931 ] } },
{ "type": "Feature", "properties": { "fid": null, "name": "", "label": "", "brochure": null, "mail": null, "image": null, "grouping": null, "department": null, "label_state": null, "icon_name": null }, "geometry": { "type": "Point", "coordinates": [ -6.866182812143138, 33.978051282597825 ] } },
{ "type": "Feature", "properties": { "fid": null, "name": "", "label": "", "brochure": null, "mail": null, "image": null, "grouping": null, "department": null, "label_state": null, "icon_name": null }, "geometry": { "type": "Point", "coordinates": [ -6.866246650416251, 33.977876250836346 ] } },
{ "type": "Feature", "properties": { "fid": null, "name": "", "label": "", "brochure": null, "mail": null, "image": null, "grouping": null, "department": null, "label_state": null, "icon_name": null }, "geometry": { "type": "Point", "coordinates": [ -6.86685364730157, 33.977821230006825 ] } },
{ "type": "Feature", "properties": { "fid": null, "name": "", "label": "", "brochure": null, "mail": null, "image": null, "grouping": null, "department": null, "label_state": null, "icon_name": null }, "geometry": { "type": "Point", "coordinates": [ -6.866637029748349, 33.977868449897009 ] } },
{ "type": "Feature", "properties": { "fid": null, "name": "", "label": "", "brochure": null, "mail": null, "image": null, "grouping": null, "department": null, "label_state": null, "icon_name": null }, "geometry": { "type": "Point", "coordinates": [ -6.866706848535193, 33.977754264986544 ] } },
{ "type": "Feature", "properties": { "fid": null, "name": "", "label": "", "brochure": null, "mail": null, "image": null, "grouping": null, "department": null, "label_state": null, "icon_name": null }, "geometry": { "type": "Point", "coordinates": [ -6.867051745651704, 33.977302793512848 ] } },
{ "type": "Feature", "properties": { "fid": null, "name": "", "label": "", "brochure": null, "mail": null, "image": null, "grouping": null, "department": null, "label_state": null, "icon_name": null }, "geometry": { "type": "Point", "coordinates": [ -6.867051745651704, 33.977302793512848 ] } },
{ "type": "Feature", "properties": { "fid": null, "name": "", "label": "", "brochure": null, "mail": null, "image": null, "grouping": null, "department": null, "label_state": null, "icon_name": null }, "geometry": { "type": "Point", "coordinates": [ -6.867234589598732, 33.977381141092195 ] } },
{ "type": "Feature", "properties": { "fid": null, "name": "tree", "label": "", "brochure": null, "mail": null, "image": null, "grouping": null, "department": null, "label_state": null, "icon_name": null }, "geometry": { "type": "Point", "coordinates": [ -6.868044892925115, 33.976880017675263 ] } },
{ "type": "Feature", "properties": { "fid": null, "name": "tree", "label": "", "brochure": null, "mail": null, "image": null, "grouping": null, "department": null, "label_state": null, "icon_name": null }, "geometry": { "type": "Point", "coordinates": [ -6.867954607270176, 33.976980298132958 ] } },
{ "type": "Feature", "properties": { "fid": null, "name": "tree", "label": "", "brochure": null, "mail": null, "image": null, "grouping": null, "department": null, "label_state": null, "icon_name": null }, "geometry": { "type": "Point", "coordinates": [ -6.868435222647555, 33.976564242628427 ] } },
{ "type": "Feature", "properties": { "fid": null, "name": "tree", "label": "", "brochure": null, "mail": null, "image": null, "grouping": null, "department": null, "label_state": null, "icon_name": null }, "geometry": { "type": "Point", "coordinates": [ -6.867892284133239, 33.975943163923759 ] } },
{ "type": "Feature", "properties": { "fid": null, "name": "tree", "label": "", "brochure": null, "mail": null, "image": null, "grouping": null, "department": null, "label_state": null, "icon_name": null }, "geometry": { "type": "Point", "coordinates": [ -6.867950799888503, 33.975789634405416 ] } },
{ "type": "Feature", "properties": { "fid": null, "name": "tree", "label": "", "brochure": null, "mail": null, "image": null, "grouping": null, "department": null, "label_state": null, "icon_name": null }, "geometry": { "type": "Point", "coordinates": [ -6.867166909156878, 33.975874082064735 ] } },
{ "type": "Feature", "properties": { "fid": null, "name": "tree", "label": "", "brochure": null, "mail": null, "image": null, "grouping": null, "department": null, "label_state": null, "icon_name": null }, "geometry": { "type": "Point", "coordinates": [ -6.867009209213879, 33.975930748584588 ] } },
{ "type": "Feature", "properties": { "fid": null, "name": "tree", "label": "", "brochure": null, "mail": null, "image": null, "grouping": null, "department": null, "label_state": null, "icon_name": null }, "geometry": { "type": "Point", "coordinates": [ -6.867662164192829, 33.975524759520624 ] } },
{ "type": "Feature", "properties": { "fid": null, "name": "tree", "label": "", "brochure": null, "mail": null, "image": null, "grouping": null, "department": null, "label_state": null, "icon_name": null }, "geometry": { "type": "Point", "coordinates": [ -6.86778232547203, 33.97560420534662 ] } },
{ "type": "Feature", "properties": { "fid": null, "name": "tree", "label": "", "brochure": null, "mail": null, "image": null, "grouping": null, "department": null, "label_state": null, "icon_name": null }, "geometry": { "type": "Point", "coordinates": [ -6.867402615663293, 33.975581031538056 ] } },
{ "type": "Feature", "properties": { "fid": null, "name": "tree", "label": "", "brochure": null, "mail": null, "image": null, "grouping": null, "department": null, "label_state": null, "icon_name": null }, "geometry": { "type": "Point", "coordinates": [ -6.867389098414221, 33.975073902196797 ] } },
{ "type": "Feature", "properties": { "fid": null, "name": "tree", "label": "", "brochure": null, "mail": null, "image": null, "grouping": null, "department": null, "label_state": null, "icon_name": null }, "geometry": { "type": "Point", "coordinates": [ -6.867469399082506, 33.97512845388642 ] } },
{ "type": "Feature", "properties": { "fid": null, "name": "tree", "label": "", "brochure": null, "mail": null, "image": null, "grouping": null, "department": null, "label_state": null, "icon_name": null }, "geometry": { "type": "Point", "coordinates": [ -6.866752695384169, 33.975319690051897 ] } },
{ "type": "Feature", "properties": { "fid": null, "name": "tree", "label": "", "brochure": null, "mail": null, "image": null, "grouping": null, "department": null, "label_state": null, "icon_name": null }, "geometry": { "type": "Point", "coordinates": [ -6.866762643473478, 33.975182305158242 ] } },
{ "type": "Feature", "properties": { "fid": null, "name": "tree", "label": "", "brochure": null, "mail": null, "image": null, "grouping": null, "department": null, "label_state": null, "icon_name": null }, "geometry": { "type": "Point", "coordinates": [ -6.866651078286955, 33.975256116337555 ] } },
{ "type": "Feature", "properties": { "fid": null, "name": "tree", "label": "", "brochure": null, "mail": null, "image": null, "grouping": null, "department": null, "label_state": null, "icon_name": null }, "geometry": { "type": "Point", "coordinates": [ -6.865690924272573, 33.9745350289557 ] } },
{ "type": "Feature", "properties": { "fid": null, "name": "tree", "label": "", "brochure": null, "mail": null, "image": null, "grouping": null, "department": null, "label_state": null, "icon_name": null }, "geometry": { "type": "Point", "coordinates": [ -6.865239756249926, 33.974588878986012 ] } },
{ "type": "Feature", "properties": { "fid": null, "name": "tree", "label": "", "brochure": null, "mail": null, "image": null, "grouping": null, "department": null, "label_state": null, "icon_name": null }, "geometry": { "type": "Point", "coordinates": [ -6.865148632120448, 33.974481107034791 ] } },
{ "type": "Feature", "properties": { "fid": null, "name": "tree", "label": "", "brochure": null, "mail": null, "image": null, "grouping": null, "department": null, "label_state": null, "icon_name": null }, "geometry": { "type": "Point", "coordinates": [ -6.864188620956938, 33.974553986191061 ] } },
{ "type": "Feature", "properties": { "fid": null, "name": "tree", "label": "", "brochure": null, "mail": null, "image": null, "grouping": null, "department": null, "label_state": null, "icon_name": null }, "geometry": { "type": "Point", "coordinates": [ -6.869820102714244, 33.975257730432858 ] } },
{ "type": "Feature", "properties": { "fid": null, "name": "tree", "label": "", "brochure": null, "mail": null, "image": null, "grouping": null, "department": null, "label_state": null, "icon_name": null }, "geometry": { "type": "Point", "coordinates": [ -6.868558282385909, 33.974647335600409 ] } },
{ "type": "Feature", "properties": { "fid": null, "name": "tree", "label": "", "brochure": null, "mail": null, "image": null, "grouping": null, "department": null, "label_state": null, "icon_name": null }, "geometry": { "type": "Point", "coordinates": [ -6.868323254113337, 33.974490402909424 ] } },
{ "type": "Feature", "properties": { "fid": null, "name": "tree", "label": "", "brochure": null, "mail": null, "image": null, "grouping": null, "department": null, "label_state": null, "icon_name": null }, "geometry": { "type": "Point", "coordinates": [ -6.868026932093933, 33.974132946311094 ] } },
{ "type": "Feature", "properties": { "fid": null, "name": "tree", "label": "", "brochure": null, "mail": null, "image": null, "grouping": null, "department": null, "label_state": null, "icon_name": null }, "geometry": { "type": "Point", "coordinates": [ -6.86824250016429, 33.973923404602729 ] } },
{ "type": "Feature", "properties": { "fid": null, "name": "tree", "label": "", "brochure": null, "mail": null, "image": null, "grouping": null, "department": null, "label_state": null, "icon_name": null }, "geometry": { "type": "Point", "coordinates": [ -6.868133145934743, 33.973743193331437 ] } },
{ "type": "Feature", "properties": { "fid": null, "name": "tree", "label": "", "brochure": null, "mail": null, "image": null, "grouping": null, "department": null, "label_state": null, "icon_name": null }, "geometry": { "type": "Point", "coordinates": [ -6.868212223596328, 33.973722659496559 ] } },
{ "type": "Feature", "properties": { "fid": null, "name": "tree", "label": "", "brochure": null, "mail": null, "image": null, "grouping": null, "department": null, "label_state": null, "icon_name": null }, "geometry": { "type": "Point", "coordinates": [ -6.868029652664711, 33.971380811896395 ] } },
{ "type": "Feature", "properties": { "fid": null, "name": "tree", "label": "", "brochure": null, "mail": null, "image": null, "grouping": null, "department": null, "label_state": null, "icon_name": null }, "geometry": { "type": "Point", "coordinates": [ -6.867923688718359, 33.971464977463825 ] } },
{ "type": "Feature", "properties": { "fid": null, "name": "tree", "label": "", "brochure": null, "mail": null, "image": null, "grouping": null, "department": null, "label_state": null, "icon_name": null }, "geometry": { "type": "Point", "coordinates": [ -6.868058269960278, 33.971502899959326 ] } },
{ "type": "Feature", "properties": { "fid": null, "name": "tree", "label": "", "brochure": null, "mail": null, "image": null, "grouping": null, "department": null, "label_state": null, "icon_name": null }, "geometry": { "type": "Point", "coordinates": [ -6.868351451009995, 33.971473851579894 ] } },
{ "type": "Feature", "properties": { "fid": null, "name": "tree", "label": "", "brochure": null, "mail": null, "image": null, "grouping": null, "department": null, "label_state": null, "icon_name": null }, "geometry": { "type": "Point", "coordinates": [ -6.869355666741368, 33.972609234570413 ] } },
{ "type": "Feature", "properties": { "fid": null, "name": "tree", "label": "", "brochure": null, "mail": null, "image": null, "grouping": null, "department": null, "label_state": null, "icon_name": null }, "geometry": { "type": "Point", "coordinates": [ -6.869367317801136, 33.973071409981358 ] } },
{ "type": "Feature", "properties": { "fid": null, "name": "tree", "label": "", "brochure": null, "mail": null, "image": null, "grouping": null, "department": null, "label_state": null, "icon_name": null }, "geometry": { "type": "Point", "coordinates": [ -6.869392279856805, 33.973045234648808 ] } },
{ "type": "Feature", "properties": { "fid": null, "name": "tree", "label": "", "brochure": null, "mail": null, "image": null, "grouping": null, "department": null, "label_state": null, "icon_name": null }, "geometry": { "type": "Point", "coordinates": [ -6.869472549538158, 33.972960538139169 ] } },
{ "type": "Feature", "properties": { "fid": null, "name": "tree", "label": "", "brochure": null, "mail": null, "image": null, "grouping": null, "department": null, "label_state": null, "icon_name": null }, "geometry": { "type": "Point", "coordinates": [ -6.869258301131666, 33.973059593653495 ] } },
{ "type": "Feature", "properties": { "fid": null, "name": "tree", "label": "", "brochure": null, "mail": null, "image": null, "grouping": null, "department": null, "label_state": null, "icon_name": null }, "geometry": { "type": "Point", "coordinates": [ -6.869226726203672, 33.973031591848944 ] } },
{ "type": "Feature", "properties": { "fid": null, "name": "tree", "label": "", "brochure": null, "mail": null, "image": null, "grouping": null, "department": null, "label_state": null, "icon_name": null }, "geometry": { "type": "Point", "coordinates": [ -6.869495158846395, 33.97292839664491 ] } },
{ "type": "Feature", "properties": { "fid": null, "name": "tree", "label": "", "brochure": null, "mail": null, "image": null, "grouping": null, "department": null, "label_state": null, "icon_name": null }, "geometry": { "type": "Point", "coordinates": [ -6.866870985561361, 33.977526977762864 ] } },
{ "type": "Feature", "properties": { "fid": null, "name": "tree", "label": "", "brochure": null, "mail": null, "image": null, "grouping": null, "department": null, "label_state": null, "icon_name": null }, "geometry": { "type": "Point", "coordinates": [ -6.866342764774778, 33.978381346030453 ] } },
{ "type": "Feature", "properties": { "fid": null, "name": "tree", "label": "", "brochure": null, "mail": null, "image": null, "grouping": null, "department": null, "label_state": null, "icon_name": null }, "geometry": { "type": "Point", "coordinates": [ -6.86519919748377, 33.978944363937266 ] } },
{ "type": "Feature", "properties": { "fid": null, "name": "tree", "label": "", "brochure": null, "mail": null, "image": null, "grouping": null, "department": null, "label_state": null, "icon_name": null }, "geometry": { "type": "Point", "coordinates": [ -6.865102341698766, 33.978795573223955 ] } },
{ "type": "Feature", "properties": { "fid": null, "name": "tree", "label": "", "brochure": null, "mail": null, "image": null, "grouping": null, "department": null, "label_state": null, "icon_name": null }, "geometry": { "type": "Point", "coordinates": [ -6.864668506835926, 33.97909817770865 ] } },
{ "type": "Feature", "properties": { "fid": null, "name": "tree", "label": "", "brochure": null, "mail": null, "image": null, "grouping": null, "department": null, "label_state": null, "icon_name": null }, "geometry": { "type": "Point", "coordinates": [ -6.864324264160964, 33.978176348119881 ] } },
{ "type": "Feature", "properties": { "fid": null, "name": "tree", "label": "", "brochure": null, "mail": null, "image": null, "grouping": null, "department": null, "label_state": null, "icon_name": null }, "geometry": { "type": "Point", "coordinates": [ -6.865699055641818, 33.97776277840034 ] } },
{ "type": "Feature", "properties": { "fid": null, "name": "tree", "label": "", "brochure": null, "mail": null, "image": null, "grouping": null, "department": null, "label_state": null, "icon_name": null }, "geometry": { "type": "Point", "coordinates": [ -6.866010531976993, 33.976599550469231 ] } },
{ "type": "Feature", "properties": { "fid": null, "name": "tree", "label": "", "brochure": null, "mail": null, "image": null, "grouping": null, "department": null, "label_state": null, "icon_name": null }, "geometry": { "type": "Point", "coordinates": [ -6.867158784898303, 33.977045454650082 ] } },
{ "type": "Feature", "properties": { "fid": null, "name": "tree", "label": "", "brochure": null, "mail": null, "image": null, "grouping": null, "department": null, "label_state": null, "icon_name": null }, "geometry": { "type": "Point", "coordinates": [ -6.867854041247428, 33.977077689928457 ] } },
{ "type": "Feature", "properties": { "fid": null, "name": "palmier", "label": "", "brochure": null, "mail": null, "image": null, "grouping": null, "department": null, "label_state": null, "icon_name": null }, "geometry": { "type": "Point", "coordinates": [ -6.864796732211579, 33.980126871369059 ] } },
{ "type": "Feature", "properties": { "fid": null, "name": "palmier", "label": "", "brochure": null, "mail": null, "image": null, "grouping": null, "department": null, "label_state": null, "icon_name": null }, "geometry": { "type": "Point", "coordinates": [ -6.864843970925053, 33.980077607789703 ] } },
{ "type": "Feature", "properties": { "fid": null, "name": "palmier", "label": "", "brochure": null, "mail": null, "image": null, "grouping": null, "department": null, "label_state": null, "icon_name": null }, "geometry": { "type": "Point", "coordinates": [ -6.864893311300556, 33.980024857931134 ] } },
{ "type": "Feature", "properties": { "fid": null, "name": "palmier", "label": "", "brochure": null, "mail": null, "image": null, "grouping": null, "department": null, "label_state": null, "icon_name": null }, "geometry": { "type": "Point", "coordinates": [ -6.86493498393126, 33.979980276198823 ] } },
{ "type": "Feature", "properties": { "fid": null, "name": "palmier", "label": "", "brochure": null, "mail": null, "image": null, "grouping": null, "department": null, "label_state": null, "icon_name": null }, "geometry": { "type": "Point", "coordinates": [ -6.864982169059346, 33.979931090253039 ] } },
{ "type": "Feature", "properties": { "fid": null, "name": "palmier", "label": "", "brochure": null, "mail": null, "image": null, "grouping": null, "department": null, "label_state": null, "icon_name": null }, "geometry": { "type": "Point", "coordinates": [ -6.865027952338397, 33.97988290437155 ] } },
{ "type": "Feature", "properties": { "fid": null, "name": "palmier", "label": "", "brochure": null, "mail": null, "image": null, "grouping": null, "department": null, "label_state": null, "icon_name": null }, "geometry": { "type": "Point", "coordinates": [ -6.865076642525676, 33.979832313990599 ] } },
{ "type": "Feature", "properties": { "fid": null, "name": "palmier", "label": "", "brochure": null, "mail": null, "image": null, "grouping": null, "department": null, "label_state": null, "icon_name": null }, "geometry": { "type": "Point", "coordinates": [ -6.865127002232298, 33.979779169975885 ] } },
{ "type": "Feature", "properties": { "fid": null, "name": "palmier", "label": "", "brochure": null, "mail": null, "image": null, "grouping": null, "department": null, "label_state": null, "icon_name": null }, "geometry": { "type": "Point", "coordinates": [ -6.865797856275725, 33.979078545932609 ] } },
{ "type": "Feature", "properties": { "fid": null, "name": "palmier", "label": "", "brochure": null, "mail": null, "image": null, "grouping": null, "department": null, "label_state": null, "icon_name": null }, "geometry": { "type": "Point", "coordinates": [ -6.865852722397969, 33.979023623329503 ] } },
{ "type": "Feature", "properties": { "fid": null, "name": "palmier", "label": "", "brochure": null, "mail": null, "image": null, "grouping": null, "department": null, "label_state": null, "icon_name": null }, "geometry": { "type": "Point", "coordinates": [ -6.865907072095512, 33.978966967001291 ] } },
{ "type": "Feature", "properties": { "fid": null, "name": "palmier", "label": "", "brochure": null, "mail": null, "image": null, "grouping": null, "department": null, "label_state": null, "icon_name": null }, "geometry": { "type": "Point", "coordinates": [ -6.865686768783067, 33.979189775415584 ] } },
{ "type": "Feature", "properties": { "fid": null, "name": "palmier", "label": "", "brochure": null, "mail": null, "image": null, "grouping": null, "department": null, "label_state": null, "icon_name": null }, "geometry": { "type": "Point", "coordinates": [ -6.865944409287351, 33.97906562624302 ] } },
{ "type": "Feature", "properties": { "fid": null, "name": "palmier", "label": "", "brochure": null, "mail": null, "image": null, "grouping": null, "department": null, "label_state": null, "icon_name": null }, "geometry": { "type": "Point", "coordinates": [ -6.86599097112645, 33.979022579306772 ] } },
{ "type": "Feature", "properties": { "fid": null, "name": "palmier", "label": "", "brochure": null, "mail": null, "image": null, "grouping": null, "department": null, "label_state": null, "icon_name": null }, "geometry": { "type": "Point", "coordinates": [ -6.86604342368977, 33.978967861017097 ] } },
{ "type": "Feature", "properties": { "fid": null, "name": "palmier", "label": "", "brochure": null, "mail": null, "image": null, "grouping": null, "department": null, "label_state": null, "icon_name": null }, "geometry": { "type": "Point", "coordinates": [ -6.866097589213453, 33.978909696677086 ] } },
{ "type": "Feature", "properties": { "fid": null, "name": "palmier", "label": "", "brochure": null, "mail": null, "image": null, "grouping": null, "department": null, "label_state": null, "icon_name": null }, "geometry": { "type": "Point", "coordinates": [ -6.866150951683678, 33.978857440453226 ] } },
{ "type": "Feature", "properties": { "fid": null, "name": "palmier", "label": "", "brochure": null, "mail": null, "image": null, "grouping": null, "department": null, "label_state": null, "icon_name": null }, "geometry": { "type": "Point", "coordinates": [ -6.866073782134269, 33.978787038858066 ] } },
{ "type": "Feature", "properties": { "fid": null, "name": "palmier", "label": "", "brochure": null, "mail": null, "image": null, "grouping": null, "department": null, "label_state": null, "icon_name": null }, "geometry": { "type": "Point", "coordinates": [ -6.86601618058684, 33.978847017716433 ] } },
{ "type": "Feature", "properties": { "fid": null, "name": "palmier", "label": "", "brochure": null, "mail": null, "image": null, "grouping": null, "department": null, "label_state": null, "icon_name": null }, "geometry": { "type": "Point", "coordinates": [ -6.866121024065615, 33.978737078443153 ] } },
{ "type": "Feature", "properties": { "fid": null, "name": "palmier", "label": "", "brochure": null, "mail": null, "image": null, "grouping": null, "department": null, "label_state": null, "icon_name": null }, "geometry": { "type": "Point", "coordinates": [ -6.866165801247052, 33.97869189729515 ] } },
{ "type": "Feature", "properties": { "fid": null, "name": "palmier", "label": "", "brochure": null, "mail": null, "image": null, "grouping": null, "department": null, "label_state": null, "icon_name": null }, "geometry": { "type": "Point", "coordinates": [ -6.866216141782798, 33.978637357777785 ] } },
{ "type": "Feature", "properties": { "fid": null, "name": "palmier", "label": "", "brochure": null, "mail": null, "image": null, "grouping": null, "department": null, "label_state": null, "icon_name": null }, "geometry": { "type": "Point", "coordinates": [ -6.866264830581105, 33.978586766911661 ] } },
{ "type": "Feature", "properties": { "fid": null, "name": "palmier", "label": "", "brochure": null, "mail": null, "image": null, "grouping": null, "department": null, "label_state": null, "icon_name": null }, "geometry": { "type": "Point", "coordinates": [ -6.866312159280203, 33.978535021621376 ] } },
{ "type": "Feature", "properties": { "fid": null, "name": "palmier", "label": "", "brochure": null, "mail": null, "image": null, "grouping": null, "department": null, "label_state": null, "icon_name": null }, "geometry": { "type": "Point", "coordinates": [ -6.866406215416213, 33.978440342097663 ] } },
{ "type": "Feature", "properties": { "fid": null, "name": "palmier", "label": "", "brochure": null, "mail": null, "image": null, "grouping": null, "department": null, "label_state": null, "icon_name": null }, "geometry": { "type": "Point", "coordinates": [ -6.866456412358959, 33.978389623399536 ] } },
{ "type": "Feature", "properties": { "fid": null, "name": "palmier", "label": "", "brochure": null, "mail": null, "image": null, "grouping": null, "department": null, "label_state": null, "icon_name": null }, "geometry": { "type": "Point", "coordinates": [ -6.86650111779103, 33.978338861955955 ] } },
{ "type": "Feature", "properties": { "fid": null, "name": "palmier", "label": "", "brochure": null, "mail": null, "image": null, "grouping": null, "department": null, "label_state": null, "icon_name": null },