{
"type": "FeatureCollection",
"name": "points",
"crs": { "type": "name", "properties": { "name": "urn:ogc:def:crs:OGC:1.3:CRS84" } },
"features": [
{ "type": "Feature", "properties": { "id": 0, "Nom": "Amphithéâtre L2", "Categorie": "Amphithéâtre", "Groupe": "Amphithéâtres et salles spécifiques", "Etiquette": "L2", "Campus": "Villejean", "Image": null, "Batiment": "L", "Niveau": "niveau : 0", "Mail": null, "Tel": null, "Lien": null, "Horaire": null, "Capacite": "210 places", "Info": null, "PMR": null, "Photo": null, "Catégorie": null }, "geometry": { "type": "Point", "coordinates": [ -1.701591912556861, 48.119373485092147 ] } },
{ "type": "Feature", "properties": { "id": 1, "Nom": "Amphithéâtre B3", "Categorie": "Amphithéâtre", "Groupe": "Amphithéâtres et salles spécifiques", "Etiquette": "B3", "Campus": "Villejean", "Image": null, "Batiment": "B", "Niveau": "niveau : 0", "Mail": null, "Tel": null, "Lien": null, "Horaire": null, "Capacite": "200 places", "Info": null, "PMR": null, "Photo": null, "Catégorie": null }, "geometry": { "type": "Point", "coordinates": [ -1.70364702965131, 48.120258229438463 ] } },
{ "type": "Feature", "properties": { "id": 2, "Nom": "Amphithéâtre L3", "Categorie": "Amphithéâtre", "Groupe": "Amphithéâtres et salles spécifiques", "Etiquette": "L3", "Campus": "Villejean", "Image": null, "Batiment": "L", "Niveau": "niveau : 0", "Mail": null, "Tel": null, "Lien": null, "Horaire": null, "Capacite": "197 places", "Info": null, "PMR": null, "Photo": null, "Catégorie": null }, "geometry": { "type": "Point", "coordinates": [ -1.701418408335874, 48.119534105729059 ] } },
{ "type": "Feature", "properties": { "id": 3, "Nom": "Amphithéâtre B2", "Categorie": "Amphithéâtre", "Groupe": "Amphithéâtres et salles spécifiques", "Etiquette": "B2", "Campus": "Villejean", "Image": null, "Batiment": "B", "Niveau": "niveau : 0", "Mail": null, "Tel": null, "Lien": null, "Horaire": null, "Capacite": "200 places", "Info": null, "PMR": null, "Photo": null, "Catégorie": null }, "geometry": { "type": "Point", "coordinates": [ -1.703494518336955, 48.120253952953043 ] } },
{ "type": "Feature", "properties": { "id": 4, "Nom": "Amphithéâtre S1", "Categorie": "Amphithéâtre", "Groupe": "Amphithéâtres et salles spécifiques", "Etiquette": "S1", "Campus": "Villejean", "Image": null, "Batiment": "S", "Niveau": "niveau : 0", "Mail": null, "Tel": null, "Lien": null, "Horaire": null, "Capacite": "184 places", "Info": null, "PMR": null, "Photo": null, "Catégorie": null }, "geometry": { "type": "Point", "coordinates": [ -1.700257084765427, 48.11921628649516 ] } },
{ "type": "Feature", "properties": { "id": 5, "Nom": "Amphithéâtre B1", "Categorie": "Amphithéâtre", "Groupe": "Amphithéâtres et salles spécifiques", "Etiquette": "B1", "Campus": "Villejean", "Image": null, "Batiment": "B", "Niveau": "niveau : 0", "Mail": null, "Tel": null, "Lien": null, "Horaire": null, "Capacite": "200 places", "Info": null, "PMR": null, "Photo": null, "Catégorie": null }, "geometry": { "type": "Point", "coordinates": [ -1.703328791892941, 48.120252457547679 ] } },
{ "type": "Feature", "properties": { "id": 6, "Nom": "Téléamphi T", "Categorie": "Amphithéâtre", "Groupe": "Amphithéâtres et salles spécifiques", "Etiquette": "T", "Campus": "Villejean", "Image": null, "Batiment": "T", "Niveau": "niveau : 0", "Mail": null, "Tel": null, "Lien": null, "Horaire": null, "Capacite": "139 places", "Info": null, "PMR": null, "Photo": null, "Catégorie": null }, "geometry": { "type": "Point", "coordinates": [ -1.702494472099348, 48.118676067858523 ] } },
{ "type": "Feature", "properties": { "id": 7, "Nom": "Amphithéâtre B4 Lamenais", "Categorie": "Amphithéâtre", "Groupe": "Amphithéâtres et salles spécifiques", "Etiquette": "B4", "Campus": "Villejean", "Image": null, "Batiment": "B", "Niveau": "niveau : 0", "Mail": null, "Tel": null, "Lien": null, "Horaire": null, "Capacite": "168 places", "Info": null, "PMR": null, "Photo": null, "Catégorie": null }, "geometry": { "type": "Point", "coordinates": [ -1.703771765166174, 48.119323413400544 ] } },
{ "type": "Feature", "properties": { "id": 8, "Nom": "Auditorium O1", "Categorie": "Amphithéâtre", "Groupe": "Amphithéâtres et salles spécifiques", "Etiquette": "O1", "Campus": "Villejean", "Image": null, "Batiment": "O", "Niveau": "niveau : 0", "Mail": null, "Tel": null, "Lien": null, "Horaire": null, "Capacite": "127 places", "Info": null, "PMR": null, "Photo": null, "Catégorie": null }, "geometry": { "type": "Point", "coordinates": [ -1.703964003015954, 48.120738535322189 ] } },
{ "type": "Feature", "properties": { "id": 9, "Nom": "Amphithéâtre B5 Feuillerat", "Categorie": "Amphithéâtre", "Groupe": "Amphithéâtres et salles spécifiques", "Etiquette": "B5", "Campus": "Villejean", "Image": null, "Batiment": "B", "Niveau": "niveau : 0", "Mail": null, "Tel": null, "Lien": null, "Horaire": null, "Capacite": "194 places", "Info": null, "PMR": null, "Photo": null, "Catégorie": null }, "geometry": { "type": "Point", "coordinates": [ -1.703775812698203, 48.11917992281392 ] } },
{ "type": "Feature", "properties": { "id": 10, "Nom": "Amphithéâtre B6 De Martonne", "Categorie": "Amphithéâtre", "Groupe": "Amphithéâtres et salles spécifiques", "Etiquette": "B6", "Campus": "Villejean", "Image": null, "Batiment": "B", "Niveau": "niveau : 0", "Mail": null, "Tel": null, "Lien": null, "Horaire": null, "Capacite": "197 places", "Info": null, "PMR": null, "Photo": null, "Catégorie": null }, "geometry": { "type": "Point", "coordinates": [ -1.70378163790547, 48.118973260414982 ] } },
{ "type": "Feature", "properties": { "id": 11, "Nom": "Amphithéâtre B7 Henri See", "Categorie": "Amphithéâtre", "Groupe": "Amphithéâtres et salles spécifiques", "Etiquette": "B7", "Campus": "Villejean", "Image": null, "Batiment": "B", "Niveau": "niveau : 0", "Mail": null, "Tel": null, "Lien": null, "Horaire": null, "Capacite": "233 places", "Info": null, "PMR": null, "Photo": null, "Catégorie": null }, "geometry": { "type": "Point", "coordinates": [ -1.703778177925134, 48.118821055201323 ] } },
{ "type": "Feature", "properties": { "id": 12, "Nom": "Amphithéâtre B8 Renan", "Categorie": "Amphithéâtre", "Groupe": "Amphithéâtres et salles spécifiques", "Etiquette": "B8", "Campus": "Villejean", "Image": null, "Batiment": "B", "Niveau": "niveau : 0", "Mail": null, "Tel": null, "Lien": null, "Horaire": null, "Capacite": "277 places", "Info": null, "PMR": null, "Photo": null, "Catégorie": null }, "geometry": { "type": "Point", "coordinates": [ -1.703271957414128, 48.119062573377633 ] } },
{ "type": "Feature", "properties": { "id": 13, "Nom": "Amphithéâtre A1 Malik Oussekine", "Categorie": "Amphithéâtre", "Groupe": "Amphithéâtres et salles spécifiques", "Etiquette": "A1", "Campus": "Villejean", "Image": null, "Batiment": "A", "Niveau": "niveau : 0", "Mail": null, "Tel": null, "Lien": null, "Horaire": null, "Capacite": "133 places", "Info": null, "PMR": null, "Photo": null, "Catégorie": null }, "geometry": { "type": "Point", "coordinates": [ -1.702966822196293, 48.118109399773488 ] } },
{ "type": "Feature", "properties": { "id": 14, "Nom": "Amphithéâtre de La Harpe", "Categorie": "Amphithéâtre", "Groupe": "Amphithéâtres et salles spécifiques", "Etiquette": " ", "Campus": "La Harpe", "Image": null, "Batiment": "La Harpe", "Niveau": "niveau : 0", "Mail": null, "Tel": null, "Lien": null, "Horaire": null, "Capacite": "192 places", "Info": null, "PMR": null, "Photo": null, "Catégorie": null }, "geometry": { "type": "Point", "coordinates": [ -1.70844770873526, 48.125116085930443 ] } },
{ "type": "Feature", "properties": { "id": 15, "Nom": "Amphithéâtre A3 Michel Denis", "Categorie": "Amphithéâtre", "Groupe": "Amphithéâtres et salles spécifiques", "Etiquette": "A3", "Campus": "Villejean", "Image": null, "Batiment": "A", "Niveau": "niveau : 0", "Mail": null, "Tel": null, "Lien": null, "Horaire": null, "Capacite": "273 places", "Info": null, "PMR": null, "Photo": null, "Catégorie": null }, "geometry": { "type": "Point", "coordinates": [ -1.702955025922969, 48.11790391289783 ] } },
{ "type": "Feature", "properties": { "id": 16, "Nom": "Amphithéâtre A4 Henri Fréville", "Categorie": "Amphithéâtre", "Groupe": "Amphithéâtres et salles spécifiques", "Etiquette": "A4", "Campus": "Villejean", "Image": null, "Batiment": "A", "Niveau": "niveau : 0", "Mail": null, "Tel": null, "Lien": null, "Horaire": null, "Capacite": "273 places", "Info": null, "PMR": null, "Photo": null, "Catégorie": null }, "geometry": { "type": "Point", "coordinates": [ -1.702735173407366, 48.117906676865331 ] } },
{ "type": "Feature", "properties": { "id": 17, "Nom": "Amphithéâtre D1 Descartes", "Categorie": "Amphithéâtre", "Groupe": "Amphithéâtres et salles spécifiques", "Etiquette": "D1", "Campus": "Villejean", "Image": null, "Batiment": "D", "Niveau": "niveau : 0", "Mail": null, "Tel": null, "Lien": null, "Horaire": null, "Capacite": "169 places", "Info": null, "PMR": null, "Photo": null, "Catégorie": null }, "geometry": { "type": "Point", "coordinates": [ -1.703091033002066, 48.119804134428762 ] } },
{ "type": "Feature", "properties": { "id": 18, "Nom": "Amphithéâtre E1", "Categorie": "Amphithéâtre", "Groupe": "Amphithéâtres et salles spécifiques", "Etiquette": "E1", "Campus": "Villejean", "Image": null, "Batiment": "E", "Niveau": "niveau : 0.5", "Mail": null, "Tel": null, "Lien": null, "Horaire": null, "Capacite": "138 places", "Info": null, "PMR": null, "Photo": null, "Catégorie": null }, "geometry": { "type": "Point", "coordinates": [ -1.702631034097431, 48.119601203719213 ] } },
{ "type": "Feature", "properties": { "id": 19, "Nom": "Amphithéâtre E2", "Categorie": "Amphithéâtre", "Groupe": "Amphithéâtres et salles spécifiques", "Etiquette": "E2", "Campus": "Villejean", "Image": null, "Batiment": "E", "Niveau": "niveau : 1.5", "Mail": null, "Tel": null, "Lien": null, "Horaire": null, "Capacite": "137 places", "Info": null, "PMR": null, "Photo": null, "Catégorie": null }, "geometry": { "type": "Point", "coordinates": [ -1.702516759500507, 48.119596607627287 ] } },
{ "type": "Feature", "properties": { "id": 20, "Nom": "Amphithéâtre E3", "Categorie": "Amphithéâtre", "Groupe": "Amphithéâtres et salles spécifiques", "Etiquette": "E3", "Campus": "Villejean", "Image": null, "Batiment": "E", "Niveau": "niveau : 1.5", "Mail": null, "Tel": null, "Lien": null, "Horaire": null, "Capacite": "138 places", "Info": null, "PMR": null, "Photo": null, "Catégorie": null }, "geometry": { "type": "Point", "coordinates": [ -1.702605587936382, 48.120197469839937 ] } },
{ "type": "Feature", "properties": { "id": 21, "Nom": "Amphithéâtre E4", "Categorie": "Amphithéâtre", "Groupe": "Amphithéâtres et salles spécifiques", "Etiquette": "E4", "Campus": "Villejean", "Image": null, "Batiment": "E", "Niveau": "niveau : 2.5", "Mail": null, "Tel": null, "Lien": null, "Horaire": null, "Capacite": "137 places", "Info": null, "PMR": null, "Photo": null, "Catégorie": null }, "geometry": { "type": "Point", "coordinates": [ -1.702484569051578, 48.120195321609124 ] } },
{ "type": "Feature", "properties": { "id": 22, "Nom": "Amphithéâtre L1", "Categorie": "Amphithéâtre", "Groupe": "Amphithéâtres et salles spécifiques", "Etiquette": "L1", "Campus": "Villejean", "Image": null, "Batiment": "L", "Niveau": "niveau : 0", "Mail": null, "Tel": null, "Lien": null, "Horaire": null, "Capacite": "196 places", "Info": null, "PMR": null, "Photo": null, "Catégorie": null }, "geometry": { "type": "Point", "coordinates": [ -1.701820888960144, 48.119276454844389 ] } },
{ "type": "Feature", "properties": { "id": 23, "Nom": "Amphithéâtre A2", "Categorie": "Amphithéâtre", "Groupe": "Amphithéâtres et salles spécifiques", "Etiquette": "A2", "Campus": "Villejean", "Image": null, "Batiment": "A", "Niveau": "niveau : 0", "Mail": null, "Tel": null, "Lien": null, "Horaire": null, "Capacite": "134 places", "Info": null, "PMR": null, "Photo": null, "Catégorie": null }, "geometry": { "type": "Point", "coordinates": [ -1.702718429316574, 48.118113886625459 ] } },
{ "type": "Feature", "properties": { "id": 24, "Nom": "Amphithéâtre A21", "Categorie": "Amphithéâtre", "Groupe": "Amphithéâtres et salles spécifiques", "Etiquette": "A21", "Campus": "Mazier", "Image": null, "Batiment": "A", "Niveau": "niveau : 2", "Mail": null, "Tel": null, "Lien": null, "Horaire": null, "Capacite": null, "Info": null, "PMR": null, "Photo": null, "Catégorie": null }, "geometry": { "type": "Point", "coordinates": [ -2.740868283523827, 48.512505392528929 ] } },
{ "type": "Feature", "properties": { "id": 25, "Nom": "Amphithéâtre 4", "Categorie": "Amphithéâtre", "Groupe": "Amphithéâtres et salles spécifiques", "Etiquette": "4", "Campus": "Mazier", "Image": null, "Batiment": "B", "Niveau": "niveau : 0", "Mail": null, "Tel": null, "Lien": null, "Horaire": null, "Capacite": null, "Info": null, "PMR": null, "Photo": null, "Catégorie": null }, "geometry": { "type": "Point", "coordinates": [ -2.741923056367188, 48.512694345485151 ] } },
{ "type": "Feature", "properties": { "id": 26, "Nom": "Amphithéâtre B24", "Categorie": "Amphithéâtre", "Groupe": "Amphithéâtres et salles spécifiques", "Etiquette": "B24", "Campus": "Mazier", "Image": null, "Batiment": "B", "Niveau": "niveau : 2", "Mail": null, "Tel": null, "Lien": null, "Horaire": null, "Capacite": null, "Info": null, "PMR": null, "Photo": null, "Catégorie": null }, "geometry": { "type": "Point", "coordinates": [ -2.741682980138851, 48.512969049297716 ] } },
{ "type": "Feature", "properties": { "id": 27, "Nom": "Amphithéâtre 5", "Categorie": "Amphithéâtre", "Groupe": "Amphithéâtres et salles spécifiques", "Etiquette": "5", "Campus": "Mazier", "Image": null, "Batiment": "C", "Niveau": "niveau : 0", "Mail": null, "Tel": null, "Lien": null, "Horaire": null, "Capacite": "137 places", "Info": null, "PMR": null, "Photo": null, "Catégorie": null }, "geometry": { "type": "Point", "coordinates": [ -2.742208965330023, 48.513193871572931 ] } },
{ "type": "Feature", "properties": { "id": 28, "Nom": "Amphithéâtre 6", "Categorie": "Amphithéâtre", "Groupe": "Amphithéâtres et salles spécifiques", "Etiquette": "6", "Campus": "Mazier", "Image": null, "Batiment": "D", "Niveau": "niveau : 0", "Mail": null, "Tel": null, "Lien": null, "Horaire": null, "Capacite": "92 places", "Info": null, "PMR": null, "Photo": null, "Catégorie": null }, "geometry": { "type": "Point", "coordinates": [ -2.741704805250515, 48.513762067474616 ] } },
{ "type": "Feature", "properties": { "id": 29, "Nom": "Salle informatique B333", "Categorie": "Salle informatique", "Groupe": "Amphithéâtres et salles spécifiques", "Etiquette": null, "Campus": "Villejean", "Image": null, "Batiment": "B", "Niveau": "niveau : 3", "Mail": null, "Tel": null, "Lien": null, "Horaire": null, "Capacite": "21 PCs", "Info": "Libre service en dehors des plages de cours", "PMR": null, "Photo": null, "Catégorie": null }, "geometry": { "type": "Point", "coordinates": [ -1.703532346141611, 48.119829560594795 ] } },
{ "type": "Feature", "properties": { "id": 30, "Nom": "Salle informatique B009", "Categorie": "Salle informatique", "Groupe": "Amphithéâtres et salles spécifiques", "Etiquette": null, "Campus": "Villejean", "Image": null, "Batiment": "B", "Niveau": "niveau : 0", "Mail": null, "Tel": null, "Lien": null, "Horaire": null, "Capacite": "8 Macs", "Info": "Réservé au département Arts Plastiques", "PMR": null, "Photo": null, "Catégorie": null }, "geometry": { "type": "Point", "coordinates": [ -1.703657527716984, 48.119694905487101 ] } },
{ "type": "Feature", "properties": { "id": 31, "Nom": "Salle multimédia E320", "Categorie": "Salle informatique", "Groupe": "Amphithéâtres et salles spécifiques", "Etiquette": null, "Campus": "Villejean", "Image": null, "Batiment": "E", "Niveau": "niveau : 3", "Mail": null, "Tel": null, "Lien": null, "Horaire": null, "Capacite": null, "Info": "Pour le CIREFE (laboratoire de langue)", "PMR": null, "Photo": null, "Catégorie": null }, "geometry": { "type": "Point", "coordinates": [ -1.702513082776473, 48.119915503308015 ] } },
{ "type": "Feature", "properties": { "id": 32, "Nom": "Salle informatique S129", "Categorie": "Salle informatique", "Groupe": "Amphithéâtres et salles spécifiques", "Etiquette": null, "Campus": "Villejean", "Image": null, "Batiment": "S", "Niveau": "niveau : 1", "Mail": null, "Tel": null, "Lien": null, "Horaire": null, "Capacite": "19 clients légers", "Info": "Libre service en dehors des plages de cours", "PMR": null, "Photo": null, "Catégorie": null }, "geometry": { "type": "Point", "coordinates": [ -1.700143150315614, 48.119348291913703 ] } },
{ "type": "Feature", "properties": { "id": 33, "Nom": "Salle informatique S130", "Categorie": "Salle informatique", "Groupe": "Amphithéâtres et salles spécifiques", "Etiquette": null, "Campus": "Villejean", "Image": null, "Batiment": "S", "Niveau": "niveau : 1", "Mail": null, "Tel": null, "Lien": null, "Horaire": null, "Capacite": "21 PCs", "Info": "Libre service en dehors des plages de cours", "PMR": null, "Photo": null, "Catégorie": null }, "geometry": { "type": "Point", "coordinates": [ -1.700014389824262, 48.119345567203659 ] } },
{ "type": "Feature", "properties": { "id": 34, "Nom": "Salle informatique S131", "Categorie": "Salle informatique", "Groupe": "Amphithéâtres et salles spécifiques", "Etiquette": null, "Campus": "Villejean", "Image": null, "Batiment": "S", "Niveau": "niveau : 1", "Mail": null, "Tel": null, "Lien": null, "Horaire": null, "Capacite": "13 PCs", "Info": "Réservé aux Sciences Humaines et à la formation DRH", "PMR": null, "Photo": null, "Catégorie": null }, "geometry": { "type": "Point", "coordinates": [ -1.69990201086123, 48.119329932417294 ] } },
{ "type": "Feature", "properties": { "id": 35, "Nom": "Salle informatique S132", "Categorie": "Salle informatique", "Groupe": "Amphithéâtres et salles spécifiques", "Etiquette": null, "Campus": "Villejean", "Image": null, "Batiment": "S", "Niveau": "niveau : 1", "Mail": null, "Tel": null, "Lien": null, "Horaire": null, "Capacite": "20 Macs", "Info": "Réservé au département Sciences de l'Education", "PMR": null, "Photo": null, "Catégorie": null }, "geometry": { "type": "Point", "coordinates": [ -1.699907004536942, 48.119236665259834 ] } },
{ "type": "Feature", "properties": { "id": 36, "Nom": "Salle informatique B015", "Categorie": "Salle informatique", "Groupe": "Amphithéâtres et salles spécifiques", "Etiquette": null, "Campus": "Villejean", "Image": null, "Batiment": "B", "Niveau": "niveau : 0", "Mail": null, "Tel": null, "Lien": null, "Horaire": null, "Capacite": "16 clients légers", "Info": "Libre service en dehors des plages de cours", "PMR": null, "Photo": null, "Catégorie": null }, "geometry": { "type": "Point", "coordinates": [ -1.703642073251437, 48.120043733532057 ] } },
{ "type": "Feature", "properties": { "id": 37, "Nom": "Salle informatique B235", "Categorie": "Salle informatique", "Groupe": "Amphithéâtres et salles spécifiques", "Etiquette": null, "Campus": "Villejean", "Image": null, "Batiment": "B", "Niveau": "niveau : 2", "Mail": null, "Tel": null, "Lien": null, "Horaire": null, "Capacite": "21 PCs", "Info": "Libre service en dehors des plages de cours", "PMR": null, "Photo": null, "Catégorie": null }, "geometry": { "type": "Point", "coordinates": [ -1.703557996006301, 48.119183226988476 ] } },
{ "type": "Feature", "properties": { "id": 38, "Nom": "Salle informatique H3.206\/207", "Categorie": "Salle informatique", "Groupe": "Amphithéâtres et salles spécifiques", "Etiquette": null, "Campus": "Villejean", "Image": null, "Batiment": "H", "Niveau": "niveau : 2", "Mail": null, "Tel": null, "Lien": null, "Horaire": null, "Capacite": "31 PCs", "Info": "Réservé à la filière documentaire", "PMR": null, "Photo": null, "Catégorie": null }, "geometry": { "type": "Point", "coordinates": [ -1.701328506264441, 48.121111568829427 ] } },
{ "type": "Feature", "properties": { "id": 39, "Nom": "Salle informatique L012", "Categorie": "Salle informatique", "Groupe": "Amphithéâtres et salles spécifiques", "Etiquette": null, "Campus": "Villejean", "Image": null, "Batiment": "L", "Niveau": "niveau : 0", "Mail": null, "Tel": null, "Lien": null, "Horaire": null, "Capacite": "20 clients légers", "Info": "Libre service", "PMR": null, "Photo": null, "Catégorie": null }, "geometry": { "type": "Point", "coordinates": [ -1.701699981671687, 48.120047507581923 ] } },
{ "type": "Feature", "properties": { "id": 40, "Nom": "Salle informatique B020", "Categorie": "Salle informatique", "Groupe": "Amphithéâtres et salles spécifiques", "Etiquette": null, "Campus": "Villejean", "Image": null, "Batiment": "B", "Niveau": "niveau : 0", "Mail": null, "Tel": null, "Lien": null, "Horaire": null, "Capacite": "13 Macs", "Info": "Réservé au département Arts Plastiques", "PMR": null, "Photo": null, "Catégorie": null }, "geometry": { "type": "Point", "coordinates": [ -1.703526846970007, 48.119987241311286 ] } },
{ "type": "Feature", "properties": { "id": 41, "Nom": "Salle informatique B239", "Categorie": "Salle informatique", "Groupe": "Amphithéâtres et salles spécifiques", "Etiquette": null, "Campus": "Villejean", "Image": null, "Batiment": "B", "Niveau": "niveau : 2", "Mail": null, "Tel": null, "Lien": null, "Horaire": null, "Capacite": "13 clients légers", "Info": "Libre service en dehors des plages de cours", "PMR": null, "Photo": null, "Catégorie": null }, "geometry": { "type": "Point", "coordinates": [ -1.703438415985011, 48.119017641485179 ] } },
{ "type": "Feature", "properties": { "id": 42, "Nom": "Salle informatique M205", "Categorie": "Salle informatique", "Groupe": "Amphithéâtres et salles spécifiques", "Etiquette": null, "Campus": "Villejean", "Image": null, "Batiment": "M", "Niveau": "niveau : 2", "Mail": null, "Tel": null, "Lien": null, "Horaire": null, "Capacite": "12 Macs", "Info": "Réservé au département Arts Plastiques", "PMR": null, "Photo": null, "Catégorie": null }, "geometry": { "type": "Point", "coordinates": [ -1.703984681663342, 48.120247948234187 ] } },
{ "type": "Feature", "properties": { "id": 43, "Nom": "Salle informatique A003", "Categorie": "Salle informatique", "Groupe": "Amphithéâtres et salles spécifiques", "Etiquette": null, "Campus": "Villejean", "Image": null, "Batiment": "A", "Niveau": "niveau : 0", "Mail": null, "Tel": null, "Lien": null, "Horaire": null, "Capacite": "16 PCs", "Info": "Réservé au département MASS", "PMR": null, "Photo": null, "Catégorie": null }, "geometry": { "type": "Point", "coordinates": [ -1.703346306623723, 48.118737982919214 ] } },
{ "type": "Feature", "properties": { "id": 44, "Nom": "Salle informatique H3.107", "Categorie": "Salle informatique", "Groupe": "Amphithéâtres et salles spécifiques", "Etiquette": null, "Campus": "Villejean", "Image": null, "Batiment": "H", "Niveau": "niveau : 1", "Mail": null, "Tel": null, "Lien": null, "Horaire": null, "Capacite": null, "Info": null, "PMR": null, "Photo": null, "Catégorie": null }, "geometry": { "type": "Point", "coordinates": [ -1.701325448641093, 48.121116533995561 ] } },
{ "type": "Feature", "properties": { "id": 45, "Nom": "Salle informatique L231", "Categorie": "Salle informatique", "Groupe": "Amphithéâtres et salles spécifiques", "Etiquette": null, "Campus": "Villejean", "Image": null, "Batiment": "L", "Niveau": "niveau : 2", "Mail": null, "Tel": null, "Lien": null, "Horaire": null, "Capacite": "26 PCs", "Info": "Libre service en dehors des plages de cours", "PMR": null, "Photo": null, "Catégorie": null }, "geometry": { "type": "Point", "coordinates": [ -1.701607328359475, 48.120068915207419 ] } },
{ "type": "Feature", "properties": { "id": 46, "Nom": "Salle informatique H3.108", "Categorie": "Salle informatique", "Groupe": "Amphithéâtres et salles spécifiques", "Etiquette": null, "Campus": "Villejean", "Image": null, "Batiment": "H", "Niveau": "niveau : 1", "Mail": null, "Tel": null, "Lien": null, "Horaire": null, "Capacite": null, "Info": null, "PMR": null, "Photo": null, "Catégorie": null }, "geometry": { "type": "Point", "coordinates": [ -1.701442505303906, 48.121113525127278 ] } },
{ "type": "Feature", "properties": { "id": 47, "Nom": "Salle informatique L255", "Categorie": "Salle informatique", "Groupe": "Amphithéâtres et salles spécifiques", "Etiquette": null, "Campus": "Villejean", "Image": null, "Batiment": "L", "Niveau": "niveau : 1", "Mail": null, "Tel": null, "Lien": null, "Horaire": null, "Capacite": null, "Info": "Pour les langues (labo)", "PMR": null, "Photo": null, "Catégorie": null }, "geometry": { "type": "Point", "coordinates": [ -1.701455505942982, 48.120023420276937 ] } },
{ "type": "Feature", "properties": { "id": 48, "Nom": "Salle informatique B205", "Categorie": "Salle informatique", "Groupe": "Amphithéâtres et salles spécifiques", "Etiquette": null, "Campus": "Villejean", "Image": null, "Batiment": "B", "Niveau": "niveau : 2", "Mail": null, "Tel": null, "Lien": null, "Horaire": null, "Capacite": "17 PCs", "Info": "Libre service en dehors des plages de cours", "PMR": null, "Photo": null, "Catégorie": null }, "geometry": { "type": "Point", "coordinates": [ -1.703674825085684, 48.119193142290612 ] } },
{ "type": "Feature", "properties": { "id": 49, "Nom": "Salle informatique H3.109\/110", "Categorie": "Salle informatique", "Groupe": "Amphithéâtres et salles spécifiques", "Etiquette": null, "Campus": "Villejean", "Image": null, "Batiment": "H", "Niveau": "niveau : 1", "Mail": null, "Tel": null, "Lien": null, "Horaire": null, "Capacite": null, "Info": null, "PMR": null, "Photo": null, "Catégorie": null }, "geometry": { "type": "Point", "coordinates": [ -1.701408673211426, 48.121031262246788 ] } },
{ "type": "Feature", "properties": { "id": 50, "Nom": "Salle informatique B206", "Categorie": "Salle informatique", "Groupe": "Amphithéâtres et salles spécifiques", "Etiquette": null, "Campus": "Villejean", "Image": null, "Batiment": "B", "Niveau": "niveau : 2", "Mail": null, "Tel": null, "Lien": null, "Horaire": null, "Capacite": "17 PCs", "Info": "Libre service en dehors des plages de cours", "PMR": null, "Photo": null, "Catégorie": null }, "geometry": { "type": "Point", "coordinates": [ -1.703671620941126, 48.119302967124931 ] } },
{ "type": "Feature", "properties": { "id": 51, "Nom": "Salle informatique H3.113", "Categorie": "Salle informatique", "Groupe": "Amphithéâtres et salles spécifiques", "Etiquette": null, "Campus": "Villejean", "Image": null, "Batiment": "H", "Niveau": "niveau : 1", "Mail": null, "Tel": null, "Lien": null, "Horaire": null, "Capacite": "11 clients légers", "Info": "Libre service permanent", "PMR": null, "Photo": null, "Catégorie": null }, "geometry": { "type": "Point", "coordinates": [ -1.701525557885856, 48.121058743293972 ] } },
{ "type": "Feature", "properties": { "id": 52, "Nom": "Salle informatique H3.114", "Categorie": "Salle informatique", "Groupe": "Amphithéâtres et salles spécifiques", "Etiquette": null, "Campus": "Villejean", "Image": null, "Batiment": "H", "Niveau": "niveau : 1", "Mail": null, "Tel": null, "Lien": null, "Horaire": null, "Capacite": "21 clients légers", "Info": "Libre service en dehors des plages de cours", "PMR": null, "Photo": null, "Catégorie": null }, "geometry": { "type": "Point", "coordinates": [ -1.701536426713296, 48.121115001789434 ] } },
{ "type": "Feature", "properties": { "id": 53, "Nom": "Salle informatique B244", "Categorie": "Salle informatique", "Groupe": "Amphithéâtres et salles spécifiques", "Etiquette": null, "Campus": "Villejean", "Image": null, "Batiment": "B", "Niveau": "niveau : 2", "Mail": null, "Tel": null, "Lien": null, "Horaire": null, "Capacite": "17 clients légers", "Info": "Libre service en dehors des plages de cours", "PMR": null, "Photo": null, "Catégorie": null }, "geometry": { "type": "Point", "coordinates": [ -1.703574410413897, 48.118741510650501 ] } },
{ "type": "Feature", "properties": { "id": 54, "Nom": "Salle informatique B331", "Categorie": "Salle informatique", "Groupe": "Amphithéâtres et salles spécifiques", "Etiquette": null, "Campus": "Villejean", "Image": null, "Batiment": "B", "Niveau": "niveau : 3", "Mail": null, "Tel": null, "Lien": null, "Horaire": null, "Capacite": "25 clients légers", "Info": "Libre service en dehors des plages de cours", "PMR": null, "Photo": null, "Catégorie": null }, "geometry": { "type": "Point", "coordinates": [ -1.703523435721828, 48.120049613482827 ] } },
{ "type": "Feature", "properties": { "id": 55, "Nom": "Salle informatique T223", "Categorie": "Salle informatique", "Groupe": "Amphithéâtres et salles spécifiques", "Etiquette": null, "Campus": "Villejean", "Image": null, "Batiment": "T", "Niveau": "niveau : 2", "Mail": null, "Tel": null, "Lien": null, "Horaire": null, "Capacite": null, "Info": null, "PMR": null, "Photo": null, "Catégorie": null }, "geometry": { "type": "Point", "coordinates": [ -1.702429900061295, 48.118374859365737 ] } },
{ "type": "Feature", "properties": { "id": 56, "Nom": "Salle informatique T219", "Categorie": "Salle informatique", "Groupe": "Amphithéâtres et salles spécifiques", "Etiquette": null, "Campus": "Villejean", "Image": null, "Batiment": "T", "Niveau": "niveau : 2", "Mail": null, "Tel": null, "Lien": null, "Horaire": null, "Capacite": null, "Info": null, "PMR": null, "Photo": null, "Catégorie": null }, "geometry": { "type": "Point", "coordinates": [ -1.702435096297569, 48.118255179581276 ] } },
{ "type": "Feature", "properties": { "id": 57, "Nom": "Salle informatique T217", "Categorie": "Salle informatique", "Groupe": "Amphithéâtres et salles spécifiques", "Etiquette": null, "Campus": "Villejean", "Image": null, "Batiment": "T", "Niveau": "niveau : 2", "Mail": null, "Tel": null, "Lien": null, "Horaire": null, "Capacite": null, "Info": null, "PMR": null, "Photo": null, "Catégorie": null }, "geometry": { "type": "Point", "coordinates": [ -1.702518236077962, 48.118253445089586 ] } },
{ "type": "Feature", "properties": { "id": 58, "Nom": "Salle informatique T215", "Categorie": "Salle informatique", "Groupe": "Amphithéâtres et salles spécifiques", "Etiquette": null, "Campus": "Villejean", "Image": null, "Batiment": "T", "Niveau": "niveau : 2", "Mail": null, "Tel": null, "Lien": null, "Horaire": null, "Capacite": null, "Info": null, "PMR": null, "Photo": null, "Catégorie": null }, "geometry": { "type": "Point", "coordinates": [ -1.702598777740218, 48.118251710597853 ] } },
{ "type": "Feature", "properties": { "id": 59, "Nom": "Salle informatique T213", "Categorie": "Salle informatique", "Groupe": "Amphithéâtres et salles spécifiques", "Etiquette": null, "Campus": "Villejean", "Image": null, "Batiment": "T", "Niveau": "niveau : 2", "Mail": null, "Tel": null, "Lien": null, "Horaire": null, "Capacite": null, "Info": null, "PMR": null, "Photo": null, "Catégorie": null }, "geometry": { "type": "Point", "coordinates": [ -1.702593581503944, 48.118340169601829 ] } },
{ "type": "Feature", "properties": { "id": 60, "Nom": "Salle informatique T211L", "Categorie": "Salle informatique", "Groupe": "Amphithéâtres et salles spécifiques", "Etiquette": null, "Campus": "Villejean", "Image": null, "Batiment": "T", "Niveau": "niveau : 2", "Mail": null, "Tel": null, "Lien": null, "Horaire": null, "Capacite": null, "Info": null, "PMR": null, "Photo": null, "Catégorie": null }, "geometry": { "type": "Point", "coordinates": [ -1.702588385267669, 48.118428628453501 ] } },
{ "type": "Feature", "properties": { "id": 61, "Nom": "Salle informatique 103", "Categorie": "Salle informatique", "Groupe": "Amphithéâtres et salles spécifiques", "Etiquette": null, "Campus": "La Harpe", "Image": null, "Batiment": "La Harpe", "Niveau": "niveau : 1", "Mail": null, "Tel": null, "Lien": null, "Horaire": null, "Capacite": "13 PCs", "Info": "Libre service en dehots des plages de cours", "PMR": null, "Photo": null, "Catégorie": null }, "geometry": { "type": "Point", "coordinates": [ -1.709761789444719, 48.125270719245698 ] } },
{ "type": "Feature", "properties": { "id": 62, "Nom": "Salle informatique B11", "Categorie": "Salle informatique", "Groupe": "Amphithéâtres et salles spécifiques", "Etiquette": null, "Campus": "Mazier", "Image": null, "Batiment": "B", "Niveau": "niveau : 1", "Mail": null, "Tel": null, "Lien": null, "Horaire": null, "Capacite": "17 clients légers", "Info": "Libre service en dehors des plages de cours", "PMR": null, "Photo": null, "Catégorie": null }, "geometry": { "type": "Point", "coordinates": [ -2.741264054192266, 48.512932946414146 ] } },
{ "type": "Feature", "properties": { "id": 63, "Nom": "Salle informatique B21", "Categorie": "Salle informatique", "Groupe": "Amphithéâtres et salles spécifiques", "Etiquette": null, "Campus": "Mazier", "Image": null, "Batiment": "B", "Niveau": "niveau : 1", "Mail": null, "Tel": null, "Lien": null, "Horaire": null, "Capacite": "20 clients légers et 26 PCs", "Info": "Libre service en dehors des plages de cours", "PMR": null, "Photo": null, "Catégorie": null }, "geometry": { "type": "Point", "coordinates": [ -2.741404352571681, 48.512932946414445 ] } },
{ "type": "Feature", "properties": { "id": 64, "Nom": "Salle informatique C04", "Categorie": "Salle informatique", "Groupe": "Amphithéâtres et salles spécifiques", "Etiquette": null, "Campus": "Mazier", "Image": null, "Batiment": "C", "Niveau": "niveau : 0", "Mail": null, "Tel": null, "Lien": null, "Horaire": null, "Capacite": "10 PCs", "Info": "Réservé à la licence  TAIS - CIAN", "PMR": null, "Photo": null, "Catégorie": null }, "geometry": { "type": "Point", "coordinates": [ -2.742092853878061, 48.513327082710759 ] } },
{ "type": "Feature", "properties": { "id": 65, "Nom": "Salle informatique C05", "Categorie": "Salle informatique", "Groupe": "Amphithéâtres et salles spécifiques", "Etiquette": null, "Campus": "Mazier", "Image": null, "Batiment": "C", "Niveau": "niveau : 0", "Mail": null, "Tel": null, "Lien": null, "Horaire": null, "Capacite": "8 clients légers", "Info": "Réservé à la licence TAIS - CIAN", "PMR": null, "Photo": null, "Catégorie": null }, "geometry": { "type": "Point", "coordinates": [ -2.7422414848601, 48.513418663578946 ] } },
{ "type": "Feature", "properties": { "id": 66, "Nom": "Salle informatique L257", "Categorie": "Salle informatique", "Groupe": "Amphithéâtres et salles spécifiques", "Etiquette": null, "Campus": "Villejean", "Image": null, "Batiment": "L", "Niveau": "niveau : 2", "Mail": null, "Tel": null, "Lien": null, "Horaire": null, "Capacite": "21 PCs", "Info": "Pour les langues (labo)", "PMR": null, "Photo": null, "Catégorie": null }, "geometry": { "type": "Point", "coordinates": [ -1.701477813454367, 48.119889642738258 ] } },
{ "type": "Feature", "properties": { "id": 67, "Nom": "Salle informatique L269", "Categorie": "Salle informatique", "Groupe": "Amphithéâtres et salles spécifiques", "Etiquette": null, "Campus": "Villejean", "Image": null, "Batiment": "L", "Niveau": "niveau : 2", "Mail": null, "Tel": null, "Lien": null, "Horaire": null, "Capacite": null, "Info": "Pour les langues (labo)", "PMR": null, "Photo": null, "Catégorie": null }, "geometry": { "type": "Point", "coordinates": [ -1.701161517538631, 48.119710400268644 ] } },
{ "type": "Feature", "properties": { "id": 68, "Nom": "Salle informatique E426", "Categorie": "Salle informatique", "Groupe": "Amphithéâtres et salles spécifiques", "Etiquette": null, "Campus": "Villejean", "Image": null, "Batiment": "E", "Niveau": "niveau : 4", "Mail": null, "Tel": null, "Lien": null, "Horaire": null, "Capacite": "21 PCs", "Info": "Libre service en dehors des plages de cours", "PMR": null, "Photo": null, "Catégorie": null }, "geometry": { "type": "Point", "coordinates": [ -1.702514051868181, 48.11977337740359 ] } },
{ "type": "Feature", "properties": { "id": 69, "Nom": "Salle informatique I019", "Categorie": "Salle informatique", "Groupe": "Amphithéâtres et salles spécifiques", "Etiquette": null, "Campus": "Villejean", "Image": null, "Batiment": "I", "Niveau": "niveau : 0", "Mail": null, "Tel": null, "Lien": null, "Horaire": null, "Capacite": "6 PCs", "Info": "Réservé au master MOUI", "PMR": null, "Photo": null, "Catégorie": null }, "geometry": { "type": "Point", "coordinates": [ -1.699211560465205, 48.119692533605409 ] } },
{ "type": "Feature", "properties": { "id": 70, "Nom": "Salle Jacques Léonard", "Categorie": "Salles spécifiques", "Groupe": "Amphithéâtres et salles spécifiques", "Etiquette": null, "Campus": "Villejean", "Image": null, "Batiment": "A", "Niveau": "niveau : 3", "Mail": null, "Tel": null, "Lien": null, "Horaire": null, "Capacite": null, "Info": null, "PMR": null, "Photo": null, "Catégorie": null }, "geometry": { "type": "Point", "coordinates": [ -1.703234017624785, 48.118507547496534 ] } },
{ "type": "Feature", "properties": { "id": 71, "Nom": "Salle Bourdon", "Categorie": "Salles spécifiques", "Groupe": "Amphithéâtres et salles spécifiques", "Etiquette": null, "Campus": "Villejean", "Image": null, "Batiment": "D", "Niveau": "niveau : 1", "Mail": null, "Tel": null, "Lien": null, "Horaire": null, "Capacite": null, "Info": null, "PMR": null, "Photo": null, "Catégorie": null }, "geometry": { "type": "Point", "coordinates": [ -1.703006682287773, 48.120325253659566 ] } },
{ "type": "Feature", "properties": { "id": 72, "Nom": "Salle polyvalente Pina Bausch", "Categorie": "Salles spécifiques", "Groupe": "Amphithéâtres et salles spécifiques", "Etiquette": null, "Campus": "Villejean", "Image": null, "Batiment": "R", "Niveau": "niveau : 1", "Mail": null, "Tel": null, "Lien": null, "Horaire": null, "Capacite": null, "Info": null, "PMR": null, "Photo": null, "Catégorie": null }, "geometry": { "type": "Point", "coordinates": [ -1.70164007214756, 48.118875256604177 ] } },
{ "type": "Feature", "properties": { "id": 73, "Nom": "Salle des thèses", "Categorie": "Salles spécifiques", "Groupe": "Amphithéâtres et salles spécifiques", "Etiquette": null, "Campus": "Villejean", "Image": null, "Batiment": "P", "Niveau": "niveau : 7", "Mail": null, "Tel": null, "Lien": null, "Horaire": null, "Capacite": null, "Info": null, "PMR": null, "Photo": null, "Catégorie": null }, "geometry": { "type": "Point", "coordinates": [ -1.703492530379445, 48.120647855094226 ] } },
{ "type": "Feature", "properties": { "id": 74, "Nom": "Salles Kennedy", "Categorie": "Salles spécifiques", "Groupe": "Amphithéâtres et salles spécifiques", "Etiquette": null, "Campus": null, "Image": null, "Batiment": "Ancienne école Kennedy", "Niveau": null, "Mail": null, "Tel": null, "Lien": null, "Horaire": null, "Capacite": null, "Info": null, "PMR": null, "Photo": null, "Catégorie": null }, "geometry": { "type": "Point", "coordinates": [ -1.706768757350564, 48.122375299275397 ] } },
{ "type": "Feature", "properties": { "id": 75, "Nom": "Plateau de danse", "Categorie": "Equipement sportif", "Groupe": "Sport et santé", "Etiquette": null, "Campus": "Villejean", "Image": null, "Batiment": "", "Niveau": "niveau : 0 \n", "Mail": null, "Tel": null, "Lien": null, "Horaire": null, "Capacite": null, "Info": "", "PMR": "Oui", "Photo": null, "Catégorie": null }, "geometry": { "type": "Point", "coordinates": [ -1.700059413404221, 48.119629913987673 ] } },
{ "type": "Feature", "properties": { "id": 76, "Nom": "Dojo", "Categorie": "Equipement sportif", "Groupe": "Sport et santé", "Etiquette": null, "Campus": "Villejean", "Image": null, "Batiment": "", "Niveau": "niveau : 0 \n", "Mail": null, "Tel": null, "Lien": null, "Horaire": null, "Capacite": null, "Info": "Judo, Karaté", "PMR": "Oui", "Photo": null, "Catégorie": null }, "geometry": { "type": "Point", "coordinates": [ -1.700319982379818, 48.119640689649522 ] } },
{ "type": "Feature", "properties": { "id": 77, "Nom": "Picsine de Villejean", "Categorie": "Equipement sportif", "Groupe": "Sport et santé", "Etiquette": null, "Campus": "Villejean", "Image": null, "Batiment": null, "Niveau": null, "Mail": null, "Tel": null, "Lien": null, "Horaire": null, "Capacite": null, "Info": "", "PMR": "Oui", "Photo": null, "Catégorie": null }, "geometry": { "type": "Point", "coordinates": [ -1.704650500399025, 48.1221236497476 ] } },
{ "type": "Feature", "properties": { "id": 78, "Nom": "Gymnase de Villejean", "Categorie": "Equipement sportif", "Groupe": "Sport et santé", "Etiquette": null, "Campus": "Villejean", "Image": null, "Batiment": "", "Niveau": "niveau : 1", "Mail": null, "Tel": null, "Lien": null, "Horaire": null, "Capacite": null, "Info": "Multi-sports (volley,handball, soccer, badminton..)", "PMR": "Non", "Photo": null, "Catégorie": null }, "geometry": { "type": "Point", "coordinates": [ -1.700412219185339, 48.119937789150029 ] } },
{ "type": "Feature", "properties": { "id": 79, "Nom": null, "Categorie": "Equipement sportif", "Groupe": "Sport et santé", "Etiquette": null, "Campus": "Villejean", "Image": null, "Batiment": null, "Niveau": null, "Mail": null, "Tel": null, "Lien": null, "Horaire": null, "Capacite": null, "Info": "Football", "PMR": "Oui", "Photo": null, "Catégorie": null }, "geometry": { "type": "Point", "coordinates": [ -1.699879551633458, 48.118291405271805 ] } },
{ "type": "Feature", "properties": { "id": 80, "Nom": "Stade Robert Poirier", "Categorie": "Equipement sportif", "Groupe": "Sport et santé", "Etiquette": null, "Campus": "Villejean", "Image": null, "Batiment": "", "Niveau": "niveau : 0 \n", "Mail": null, "Tel": null, "Lien": null, "Horaire": null, "Capacite": null, "Info": "Athlétisme", "PMR": "Oui", "Photo": null, "Catégorie": null }, "geometry": { "type": "Point", "coordinates": [ -1.700880320973354, 48.118254459165762 ] } },
{ "type": "Feature", "properties": { "id": 81, "Nom": "Piste d'athlétisme", "Categorie": "Equipement sportif", "Groupe": "Sport et santé", "Etiquette": null, "Campus": "Villejean", "Image": null, "Batiment": null, "Niveau": null, "Mail": null, "Tel": null, "Lien": null, "Horaire": null, "Capacite": null, "Info": "", "PMR": "Oui", "Photo": null, "Catégorie": null }, "geometry": { "type": "Point", "coordinates": [ -1.699482933369721, 48.118787096291818 ] } },
{ "type": "Feature", "properties": { "id": 82, "Nom": null, "Categorie": "Equipement sportif", "Groupe": "Sport et santé", "Etiquette": null, "Campus": "Villejean", "Image": null, "Batiment": null, "Niveau": null, "Mail": null, "Tel": null, "Lien": null, "Horaire": null, "Capacite": null, "Info": "Football", "PMR": "Oui", "Photo": null, "Catégorie": null }, "geometry": { "type": "Point", "coordinates": [ -1.69893873621715, 48.117866523448058 ] } },
{ "type": "Feature", "properties": { "id": 83, "Nom": null, "Categorie": "Equipement sportif", "Groupe": "Sport et santé", "Etiquette": null, "Campus": "La Harpe", "Image": null, "Batiment": null, "Niveau": null, "Mail": null, "Tel": null, "Lien": null, "Horaire": null, "Capacite": null, "Info": null, "PMR": null, "Photo": null, "Catégorie": null }, "geometry": { "type": "Point", "coordinates": [ -1.704175480850592, 48.127643303406046 ] } },
{ "type": "Feature", "properties": { "id": 84, "Nom": null, "Categorie": "Equipement sportif", "Groupe": "Sport et santé", "Etiquette": null, "Campus": "La Harpe", "Image": null, "Batiment": null, "Niveau": null, "Mail": null, "Tel": null, "Lien": null, "Horaire": null, "Capacite": null, "Info": null, "PMR": null, "Photo": null, "Catégorie": null }, "geometry": { "type": "Point", "coordinates": [ -1.705743506544448, 48.127809530288438 ] } },
{ "type": "Feature", "properties": { "id": 85, "Nom": "Centre aquatique Aquabaie", "Categorie": "Equipement sportif", "Groupe": "Sport et santé", "Etiquette": null, "Campus": "Mazier", "Image": null, "Batiment": null, "Niveau": null, "Mail": null, "Tel": null, "Lien": null, "Horaire": null, "Capacite": null, "Info": null, "PMR": null, "Photo": null, "Catégorie": null }, "geometry": { "type": "Point", "coordinates": [ -2.762986310987007, 48.50037034092604 ] } },
{ "type": "Feature", "properties": { "id": 86, "Nom": "Steredenn", "Categorie": "Equipement sportif", "Groupe": "Sport et santé", "Etiquette": null, "Campus": "Mazier", "Image": null, "Batiment": null, "Niveau": null, "Mail": null, "Tel": null, "Lien": null, "Horaire": null, "Capacite": null, "Info": null, "PMR": null, "Photo": null, "Catégorie": null }, "geometry": { "type": "Point", "coordinates": [ -2.765358504977886, 48.499437045320576 ] } },
{ "type": "Feature", "properties": { "id": 87, "Nom": "Salle de gymnastique", "Categorie": "Equipement sportif", "Groupe": "Sport et santé", "Etiquette": null, "Campus": "La Harpe", "Image": null, "Batiment": null, "Niveau": "niveau : 0 \n", "Mail": null, "Tel": null, "Lien": null, "Horaire": null, "Capacite": null, "Info": "Multi-sports (volley,handball, soccer, badminton..)", "PMR": "Oui", "Photo": null, "Catégorie": null }, "geometry": { "type": "Point", "coordinates": [ -1.709036360501544, 48.125925594117859 ] } },
{ "type": "Feature", "properties": { "id": 88, "Nom": null, "Categorie": "Equipement sportif", "Groupe": "Sport et santé", "Etiquette": null, "Campus": "La Harpe", "Image": null, "Batiment": null, "Niveau": null, "Mail": null, "Tel": null, "Lien": null, "Horaire": null, "Capacite": null, "Info": "Football", "PMR": "Oui", "Photo": null, "Catégorie": null }, "geometry": { "type": "Point", "coordinates": [ -1.708962571057127, 48.126516640355646 ] } },
{ "type": "Feature", "properties": { "id": 89, "Nom": null, "Categorie": "Equipement sportif", "Groupe": "Sport et santé", "Etiquette": null, "Campus": "La Harpe", "Image": null, "Batiment": null, "Niveau": null, "Mail": null, "Tel": null, "Lien": null, "Horaire": null, "Capacite": null, "Info": null, "PMR": null, "Photo": null, "Catégorie": null }, "geometry": { "type": "Point", "coordinates": [ -1.704433743906051, 48.126590520657118 ] } },
{ "type": "Feature", "properties": { "id": 90, "Nom": "Hall des sports", "Categorie": "Equipement sportif", "Groupe": "Sport et santé", "Etiquette": null, "Campus": "La Harpe", "Image": null, "Batiment": null, "Niveau": null, "Mail": null, "Tel": null, "Lien": null, "Horaire": null, "Capacite": null, "Info": null, "PMR": null, "Photo": null, "Catégorie": null }, "geometry": { "type": "Point", "coordinates": [ -1.706379940502541, 48.126633617450601 ] } },
{ "type": "Feature", "properties": { "id": null, "Nom": "Arrêt de bus", "Categorie": "Bus", "Groupe": "Mobilités et accessibilité", "Etiquette": " ", "Campus": "", "Image": null, "Batiment": null, "Niveau": null, "Mail": null, "Tel": null, "Lien": null, "Horaire": null, "Capacite": null, "Info": "Desservi par le : C4 32 41 N1 14 40 35", "PMR": "OUI", "Photo": null, "Catégorie": null }, "geometry": { "type": "Point", "coordinates": [ -1.633208, 48.125147 ] } },
{ "type": "Feature", "properties": { "id": 92, "Nom": "MJC du Plateau", "Categorie": "Equipement sportif", "Groupe": "Sport et santé", "Etiquette": null, "Campus": "Mazier", "Image": null, "Batiment": null, "Niveau": null, "Mail": null, "Tel": null, "Lien": null, "Horaire": null, "Capacite": null, "Info": null, "PMR": null, "Photo": null, "Catégorie": null }, "geometry": { "type": "Point", "coordinates": [ -2.7416365650691, 48.514318606230326 ] } },
{ "type": "Feature", "properties": { "id": 93, "Nom": "Gymnase Chaptal", "Categorie": "Equipement sportif", "Groupe": "Sport et santé", "Etiquette": null, "Campus": "Mazier", "Image": null, "Batiment": null, "Niveau": null, "Mail": null, "Tel": null, "Lien": null, "Horaire": null, "Capacite": null, "Info": null, "PMR": null, "Photo": null, "Catégorie": null }, "geometry": { "type": "Point", "coordinates": [ -2.734149327785389, 48.512747162615021 ] } },
{ "type": "Feature", "properties": { "id": 0, "Nom": "Bâtiment Robert Debré", "Categorie": "Batiment", "Groupe": null, "Etiquette": " ", "Campus": "Villejean", "Image": null, "Batiment": null, "Niveau": null, "Mail": null, "Tel": null, "Lien": null, "Horaire": null, "Capacite": null, "Info": "", "PMR": null, "Photo": null, "Catégorie": "Bâtiments" }, "geometry": { "type": "Point", "coordinates": [ -1.703194433113514, 48.116620086776905 ] } },
{ "type": "Feature", "properties": { "id": 95, "Nom": "Gymnase Beaufeuillage", "Categorie": "Equipement sportif", "Groupe": "Sport et santé", "Etiquette": null, "Campus": "Mazier", "Image": null, "Batiment": null, "Niveau": null, "Mail": null, "Tel": null, "Lien": null, "Horaire": null, "Capacite": null, "Info": null, "PMR": null, "Photo": null, "Catégorie": null }, "geometry": { "type": "Point", "coordinates": [ -2.743045055251184, 48.506313557147607 ] } },
{ "type": "Feature", "properties": { "id": 96, "Nom": "Dojo amicale laïque", "Categorie": "Equipement sportif", "Groupe": "Sport et santé", "Etiquette": null, "Campus": "Mazier", "Image": null, "Batiment": null, "Niveau": null, "Mail": null, "Tel": null, "Lien": null, "Horaire": null, "Capacite": null, "Info": "Judo, Karaté", "PMR": null, "Photo": null, "Catégorie": null }, "geometry": { "type": "Point", "coordinates": [ -2.765358504977886, 48.508228990729592 ] } },
{ "type": "Feature", "properties": { "id": 97, "Nom": "Gymnase de la Vallée", "Categorie": "Equipement sportif", "Groupe": "Sport et santé", "Etiquette": null, "Campus": "Mazier", "Image": null, "Batiment": null, "Niveau": null, "Mail": null, "Tel": null, "Lien": null, "Horaire": null, "Capacite": null, "Info": null, "PMR": null, "Photo": null, "Catégorie": null }, "geometry": { "type": "Point", "coordinates": [ -2.74689987048636, 48.515006097486022 ] } },
{ "type": "Feature", "properties": { "id": 98, "Nom": "Stade Fred Aubert", "Categorie": "Equipement sportif", "Groupe": "Sport et santé", "Etiquette": null, "Campus": "Mazier", "Image": null, "Batiment": null, "Niveau": null, "Mail": null, "Tel": null, "Lien": null, "Horaire": null, "Capacite": null, "Info": null, "PMR": null, "Photo": null, "Catégorie": null }, "geometry": { "type": "Point", "coordinates": [ -2.743712234811118, 48.508867452502329 ] } },
{ "type": "Feature", "properties": { "id": 99, "Nom": "Service culturel", "Categorie": "Lieu culturel", "Groupe": "Bibliothèques et culture", "Etiquette": null, "Campus": "Villejean", "Image": null, "Batiment": "O", "Niveau": null, "Mail": "espaceartetessai@gmail.com", "Tel": "+33(0)0299141142", "Lien": "https:\/\/www.univ-rennes2.fr\/service-culturel\/galerie-art-essai", "Horaire": null, "Capacite": null, "Info": "La Galerie Art & Essai est un lieu d'art contemporain lié à  l'université Rennes 2.", "PMR": null, "Photo": null, "Catégorie": null }, "geometry": { "type": "Point", "coordinates": [ -1.703980621969577, 48.120730172855929 ] } },
{ "type": "Feature", "properties": { "id": 100, "Nom": "L'espace M", "Categorie": "Lieu culturel", "Groupe": "Bibliothèques et culture", "Etiquette": null, "Campus": "Villejean", "Image": null, "Batiment": "M", "Niveau": "niveau : 0", "Mail": null, "Tel": null, "Lien": "https:\/\/www.univ-rennes2.fr\/service-communication\/espace-m", "Horaire": null, "Capacite": null, "Info": "Cette petite galerie permet aux étudiants du master Arts plastiques d'exposer leurs travaux. Cet espace clos et vitré donnant sur l'extérieur offre aux passants la possibilité de voir", "PMR": "Oui", "Photo": null, "Catégorie": null }, "geometry": { "type": "Point", "coordinates": [ -1.7039537157941, 48.120371212288063 ] } },
{ "type": "Feature", "properties": { "id": 101, "Nom": "Le Tambour", "Categorie": "Lieu culturel", "Groupe": "Bibliothèques et culture", "Etiquette": null, "Campus": "Villejean", "Image": null, "Batiment": "O", "Niveau": "niveau : 0", "Mail": null, "Tel": null, "Lien": "https:\/\/www.univ-rennes2.fr\/service-culturel\/le-tambour\/programmation", "Horaire": null, "Capacite": "250 places", "Info": "Le Tambour est une salle de spectacle", "PMR": "Oui", "Photo": null, "Catégorie": null }, "geometry": { "type": "Point", "coordinates": [ -1.704006712806403, 48.120792357961022 ] } },
{ "type": "Feature", "properties": { "id": 102, "Nom": "Galerie Arts et Essai", "Categorie": "Lieu culturel", "Groupe": "Bibliothèques et culture", "Etiquette": null, "Campus": "Villejean", "Image": null, "Batiment": "H", "Niveau": "niveau : 0", "Mail": "espaceartetessai@gmail.com", "Tel": "+33(0)299141142", "Lien": "https:\/\/www.univ-rennes2.fr\/service-culturel\/galerie-art-essai", "Horaire": null, "Capacite": null, "Info": "Située sur le campus Villejean, sous la bibliothèque universitaire, la Galerie Art & Essai de l'Université Rennes 2 est un lieu d'exposition et de diffusion de la scène artistique contemporaine.", "PMR": "Oui", "Photo": null, "Catégorie": null }, "geometry": { "type": "Point", "coordinates": [ -1.701850957413656, 48.120402645250749 ] } },
{ "type": "Feature", "properties": { "id": 103, "Nom": "Cabinet du livre d'art", "Categorie": "Lieu culturel", "Groupe": "Bibliothèques et culture", "Etiquette": null, "Campus": "Villejean", "Image": null, "Batiment": "R", "Niveau": "niveau : 0", "Mail": "noury_aurelie@yahoo.fr", "Tel": "+33(0)0660487696", "Lien": "https:\/\/www.univ-rennes2.fr\/cabinet-livre-artiste", "Horaire": null, "Capacite": null, "Info": null, "PMR": "Oui", "Photo": null, "Catégorie": null }, "geometry": { "type": "Point", "coordinates": [ -1.701619401236823, 48.119068020107136 ] } },
{ "type": "Feature", "properties": { "id": 104, "Nom": "Galerie Chambre Claire", "Categorie": "Lieu culturel", "Groupe": "Bibliothèques et culture", "Etiquette": null, "Campus": "Villejean", "Image": null, "Batiment": "P", "Niveau": "niveau : 0", "Mail": "s-culturel[at]univ-rennes2.fr", "Tel": "+33(0)0299141155", "Lien": "https:\/\/www.univ-rennes2.fr\/service-culturel\/chambre-claire", "Horaire": null, "Capacite": null, "Info": "La Chambre Claire (hall du Bât. P) accueille plusieurs expositions par an. On y découvre en majorité des propositions photographiques, dont des travaux d'étudiant.e.s,", "PMR": "Oui", "Photo": null, "Catégorie": null }, "geometry": { "type": "Point", "coordinates": [ -1.703276169375275, 48.120757523425638 ] } },
{ "type": "Feature", "properties": { "id": 2, "Nom": "UFR Sciences Sociales", "Categorie": "Formation UFRSS", "Groupe": "Département de formation", "Etiquette": "UFR Sciences sociales", "Campus": "Villejean", "Image": null, "Batiment": "A", "Niveau": null, "Mail": "enira.duros@univ-rennes2.fr", "Tel": "+33299141789", "Lien": "https:\/\/www.univ-rennes2.fr\/ufr-sciences-sociales", "Horaire": null, "Capacite": null, "Info": null, "PMR": null, "Photo": null, "Catégorie": null }, "geometry": { "type": "Point", "coordinates": [ -1.703589419886707, 48.119063586822264 ] } },
{ "type": "Feature", "properties": { "id": 106, "Nom": null, "Categorie": "Toilettes", "Groupe": "Services divers", "Etiquette": null, "Campus": "Mazier", "Image": null, "Batiment": "Mazier D", "Niveau": "niveau : 0", "Mail": null, "Tel": null, "Lien": null, "Horaire": null, "Capacite": null, "Info": "Femme", "PMR": null, "Photo": null, "Catégorie": null }, "geometry": { "type": "Point", "coordinates": [ -2.741755838573871, 48.513726930910671 ] } },
{ "type": "Feature", "properties": { "id": 107, "Nom": null, "Categorie": "Toilettes", "Groupe": "Services divers", "Etiquette": null, "Campus": "Mazier", "Image": null, "Batiment": "Mazier D", "Niveau": "niveau : 0", "Mail": null, "Tel": null, "Lien": null, "Horaire": null, "Capacite": null, "Info": "Homme", "PMR": null, "Photo": null, "Catégorie": null }, "geometry": { "type": "Point", "coordinates": [ -2.741755838573871, 48.513829987573672 ] } },
{ "type": "Feature", "properties": { "id": 108, "Nom": null, "Categorie": "Toilettes", "Groupe": "Services divers", "Etiquette": null, "Campus": "La Harpe", "Image": null, "Batiment": "Principal H", "Niveau": "niveau : 0", "Mail": null, "Tel": null, "Lien": null, "Horaire": null, "Capacite": null, "Info": "Homme, Femme, PMR", "PMR": null, "Photo": null, "Catégorie": null }, "geometry": { "type": "Point", "coordinates": [ -1.709772552778749, 48.125486251593955 ] } },
{ "type": "Feature", "properties": { "id": 109, "Nom": null, "Categorie": "Toilettes", "Groupe": "Services divers", "Etiquette": null, "Campus": "La Harpe", "Image": null, "Batiment": "Principal H", "Niveau": "niveau : 0", "Mail": null, "Tel": null, "Lien": null, "Horaire": null, "Capacite": null, "Info": "Femme, PMR", "PMR": null, "Photo": null, "Catégorie": null }, "geometry": { "type": "Point", "coordinates": [ -1.709829097146653, 48.125488471796565 ] } },
{ "type": "Feature", "properties": { "id": 110, "Nom": null, "Categorie": "Toilettes", "Groupe": "Services divers", "Etiquette": null, "Campus": "La Harpe", "Image": null, "Batiment": "Principal H", "Niveau": "niveau : 1", "Mail": null, "Tel": null, "Lien": null, "Horaire": null, "Capacite": null, "Info": "Homme, Femme, PMR", "PMR": null, "Photo": null, "Catégorie": null }, "geometry": { "type": "Point", "coordinates": [ -1.709250348910467, 48.125626124170452 ] } },
{ "type": "Feature", "properties": { "id": 111, "Nom": null, "Categorie": "Toilettes", "Groupe": "Services divers", "Etiquette": null, "Campus": "La Harpe", "Image": null, "Batiment": "Principal H", "Niveau": "niveau : 0", "Mail": null, "Tel": null, "Lien": null, "Horaire": null, "Capacite": null, "Info": "Homme, Femme, PMR", "PMR": null, "Photo": null, "Catégorie": null }, "geometry": { "type": "Point", "coordinates": [ -1.709077389667468, 48.125621683777062 ] } },
{ "type": "Feature", "properties": { "id": 112, "Nom": null, "Categorie": "Copieur", "Groupe": "Services divers", "Etiquette": null, "Campus": "Mazier", "Image": null, "Batiment": "A", "Niveau": "niveau : 0", "Mail": null, "Tel": null, "Lien": null, "Horaire": null, "Capacite": null, "Info": "Bibliothèque Personnel", "PMR": null, "Photo": null, "Catégorie": null }, "geometry": { "type": "Point", "coordinates": [ -2.741487786682063, 48.512401669749607 ] } },
{ "type": "Feature", "properties": { "id": 113, "Nom": null, "Categorie": "Copieur", "Groupe": "Services divers", "Etiquette": null, "Campus": "La Harpe", "Image": null, "Batiment": "Principal", "Niveau": "niveau : 0", "Mail": null, "Tel": null, "Lien": null, "Horaire": null, "Capacite": null, "Info": "Bibliothèque UFR APS", "PMR": null, "Photo": null, "Catégorie": null }, "geometry": { "type": "Point", "coordinates": [ -1.708544075863754, 48.125349999601326 ] } },
{ "type": "Feature", "properties": { "id": 114, "Nom": "Restaurant Universitaire", "Categorie": "Restaurant Universitaire", "Groupe": "Restauration et logement", "Etiquette": null, "Campus": "Mazier", "Image": null, "Batiment": "A", "Niveau": "niveau : 0", "Mail": null, "Tel": null, "Lien": null, "Horaire": null, "Capacite": null, "Info": null, "PMR": null, "Photo": null, "Catégorie": null }, "geometry": { "type": "Point", "coordinates": [ -2.741552207369713, 48.512649965838385 ] } },
{ "type": "Feature", "properties": { "id": 115, "Nom": null, "Categorie": "Copieur", "Groupe": "Services divers", "Etiquette": null, "Campus": "Mazier", "Image": null, "Batiment": "A", "Niveau": "niveau : 0", "Mail": null, "Tel": null, "Lien": null, "Horaire": null, "Capacite": null, "Info": "Bibliothèque", "PMR": null, "Photo": null, "Catégorie": null }, "geometry": { "type": "Point", "coordinates": [ -2.74149071489514, 48.51244434572645 ] } },
{ "type": "Feature", "properties": { "id": 116, "Nom": null, "Categorie": "Copieur", "Groupe": "Services divers", "Etiquette": null, "Campus": "Villejean", "Image": null, "Batiment": "B'", "Niveau": "niveau : 1", "Mail": null, "Tel": null, "Lien": null, "Horaire": null, "Capacite": null, "Info": "Bibliothèque Arts, Lettres", "PMR": null, "Photo": null, "Catégorie": null }, "geometry": { "type": "Point", "coordinates": [ -1.703527687878693, 48.120442465568111 ] } },
{ "type": "Feature", "properties": { "id": 117, "Nom": null, "Categorie": "Copieur", "Groupe": "Services divers", "Etiquette": null, "Campus": "Villejean", "Image": null, "Batiment": "B", "Niveau": "niveau : 2", "Mail": null, "Tel": null, "Lien": null, "Horaire": null, "Capacite": null, "Info": "Bibliothèque sciences sociales", "PMR": null, "Photo": null, "Catégorie": null }, "geometry": { "type": "Point", "coordinates": [ -1.703711128226953, 48.118803376632286 ] } },
{ "type": "Feature", "properties": { "id": 118, "Nom": null, "Categorie": "Copieur", "Groupe": "Services divers", "Etiquette": null, "Campus": "La Harpe", "Image": null, "Batiment": "Principal", "Niveau": "niveau : 0", "Mail": null, "Tel": null, "Lien": null, "Horaire": null, "Capacite": null, "Info": "Salle libre-service W102", "PMR": null, "Photo": null, "Catégorie": null }, "geometry": { "type": "Point", "coordinates": [ -1.709651773351312, 48.125208714389572 ] } },
{ "type": "Feature", "properties": { "id": 119, "Nom": null, "Categorie": "Copieur", "Groupe": "Services divers", "Etiquette": null, "Campus": "Villejean", "Image": null, "Batiment": "O", "Niveau": "niveau : 0", "Mail": null, "Tel": null, "Lien": null, "Horaire": null, "Capacite": null, "Info": "Bibliothèque Musique", "PMR": null, "Photo": null, "Catégorie": null }, "geometry": { "type": "Point", "coordinates": [ -1.704070953525458, 48.120762741206434 ] } },
{ "type": "Feature", "properties": { "id": 120, "Nom": null, "Categorie": "Espace détente", "Groupe": "Services divers", "Etiquette": null, "Campus": null, "Image": null, "Batiment": " ", "Niveau": null, "Mail": null, "Tel": null, "Lien": null, "Horaire": null, "Capacite": null, "Info": "Banc public", "PMR": null, "Photo": null, "Catégorie": null }, "geometry": { "type": "Point", "coordinates": [ -1.702366302977465, 48.12057141500425 ] } },
{ "type": "Feature", "properties": { "id": 121, "Nom": null, "Categorie": "Espace détente", "Groupe": "Services divers", "Etiquette": null, "Campus": null, "Image": null, "Batiment": " ", "Niveau": null, "Mail": null, "Tel": null, "Lien": null, "Horaire": null, "Capacite": null, "Info": "Banc public", "PMR": null, "Photo": null, "Catégorie": null }, "geometry": { "type": "Point", "coordinates": [ -1.702332249201924, 48.120694173695071 ] } },
{ "type": "Feature", "properties": { "id": 122, "Nom": null, "Categorie": "Espace détente", "Groupe": "Services divers", "Etiquette": null, "Campus": null, "Image": null, "Batiment": " ", "Niveau": null, "Mail": null, "Tel": null, "Lien": null, "Horaire": null, "Capacite": null, "Info": "Mobilier table + chaises", "PMR": null, "Photo": null, "Catégorie": null }, "geometry": { "type": "Point", "coordinates": [ -1.70142641877251, 48.118920964121543 ] } },
{ "type": "Feature", "properties": { "id": 123, "Nom": null, "Categorie": "Espace détente", "Groupe": "Services divers", "Etiquette": null, "Campus": null, "Image": null, "Batiment": " ", "Niveau": null, "Mail": null, "Tel": null, "Lien": null, "Horaire": null, "Capacite": null, "Info": "Mobilier table + chaises", "PMR": null, "Photo": null, "Catégorie": null }, "geometry": { "type": "Point", "coordinates": [ -1.70142641877251, 48.119025539717796 ] } },
{ "type": "Feature", "properties": { "id": 124, "Nom": "Restaurant Universitaire Le Métronome", "Categorie": "Restaurant Universitaire", "Groupe": "Restauration et logement", "Etiquette": null, "Campus": "Villejean", "Image": null, "Batiment": "Externe", "Niveau": "niveau : 0", "Mail": null, "Tel": null, "Lien": null, "Horaire": null, "Capacite": null, "Info": null, "PMR": null, "Photo": null, "Catégorie": null }, "geometry": { "type": "Point", "coordinates": [ -1.70129701442545, 48.121758070060906 ] } },
{ "type": "Feature", "properties": { "id": 125, "Nom": "Restaurant Universitaire (Ereve)", "Categorie": "Restaurant Universitaire", "Groupe": "Restauration et logement", "Etiquette": null, "Campus": "Villejean", "Image": null, "Batiment": "R", "Niveau": "niveau : 0", "Mail": null, "Tel": null, "Lien": null, "Horaire": null, "Capacite": null, "Info": null, "PMR": null, "Photo": null, "Catégorie": null }, "geometry": { "type": "Point", "coordinates": [ -1.701916793140312, 48.118880043178088 ] } },
{ "type": "Feature", "properties": { "id": 126, "Nom": null, "Categorie": "Espace détente", "Groupe": "Services divers", "Etiquette": null, "Campus": null, "Image": null, "Batiment": " ", "Niveau": null, "Mail": null, "Tel": null, "Lien": null, "Horaire": null, "Capacite": null, "Info": "Banc circulaire", "PMR": null, "Photo": null, "Catégorie": null }, "geometry": { "type": "Point", "coordinates": [ -1.702734083753318, 48.118889136723894 ] } },
{ "type": "Feature", "properties": { "id": 127, "Nom": null, "Categorie": "Espace détente", "Groupe": "Services divers", "Etiquette": null, "Campus": null, "Image": null, "Batiment": " ", "Niveau": null, "Mail": null, "Tel": null, "Lien": null, "Horaire": null, "Capacite": null, "Info": "Mobilier table + chaises", "PMR": null, "Photo": null, "Catégorie": null }, "geometry": { "type": "Point", "coordinates": [ -1.702502518079632, 48.119025539717782 ] } },
{ "type": "Feature", "properties": { "id": 128, "Nom": null, "Categorie": "Parking PMR", "Groupe": "Mobilités et accessibilité", "Etiquette": null, "Campus": null, "Image": null, "Batiment": "T", "Niveau": null, "Mail": null, "Tel": null, "Lien": null, "Horaire": null, "Capacite": "2 places", "Info": null, "PMR": null, "Photo": null, "Catégorie": null }, "geometry": { "type": "Point", "coordinates": [ -1.702325438446815, 48.118443551086656 ] } },
{ "type": "Feature", "properties": { "id": 129, "Nom": null, "Categorie": "Parking PMR", "Groupe": "Mobilités et accessibilité", "Etiquette": null, "Campus": null, "Image": null, "Batiment": "R", "Niveau": null, "Mail": null, "Tel": null, "Lien": null, "Horaire": null, "Capacite": "2 places", "Info": null, "PMR": null, "Photo": null, "Catégorie": null }, "geometry": { "type": "Point", "coordinates": [ -1.702059818997588, 48.118702718713216 ] } },
{ "type": "Feature", "properties": { "id": 130, "Nom": null, "Categorie": "Parking PMR", "Groupe": "Mobilités et accessibilité", "Etiquette": null, "Campus": null, "Image": null, "Batiment": "I", "Niveau": null, "Mail": null, "Tel": null, "Lien": null, "Horaire": null, "Capacite": "2 places", "Info": null, "PMR": null, "Photo": null, "Catégorie": null }, "geometry": { "type": "Point", "coordinates": [ -1.69932870619913, 48.119480213748474 ] } },
{ "type": "Feature", "properties": { "id": 131, "Nom": null, "Categorie": "Ascenseur", "Groupe": "Mobilités et accessibilité", "Etiquette": null, "Campus": "Villejean", "Image": null, "Batiment": "S", "Niveau": null, "Mail": null, "Tel": null, "Lien": null, "Horaire": null, "Capacite": "1 places", "Info": null, "PMR": null, "Photo": null, "Catégorie": null }, "geometry": { "type": "Point", "coordinates": [ -1.699893998873125, 48.119275610932625 ] } },
{ "type": "Feature", "properties": { "id": 132, "Nom": null, "Categorie": "Parking PMR", "Groupe": "Mobilités et accessibilité", "Etiquette": null, "Campus": null, "Image": null, "Batiment": "E", "Niveau": null, "Mail": null, "Tel": null, "Lien": null, "Horaire": null, "Capacite": "4 places", "Info": null, "PMR": null, "Photo": null, "Catégorie": null }, "geometry": { "type": "Point", "coordinates": [ -1.702856677345268, 48.119966710504954 ] } },
{ "type": "Feature", "properties": { "id": 133, "Nom": null, "Categorie": "Parking PMR", "Groupe": "Mobilités et accessibilité", "Etiquette": null, "Campus": null, "Image": null, "Batiment": "D", "Niveau": null, "Mail": null, "Tel": null, "Lien": null, "Horaire": null, "Capacite": "2 places", "Info": null, "PMR": null, "Photo": null, "Catégorie": null }, "geometry": { "type": "Point", "coordinates": [ -1.703326619447747, 48.119957617149879 ] } },
{ "type": "Feature", "properties": { "id": 134, "Nom": null, "Categorie": "Ascenseur", "Groupe": "Mobilités et accessibilité", "Etiquette": null, "Campus": "Villejean", "Image": null, "Batiment": "N", "Niveau": null, "Mail": null, "Tel": null, "Lien": null, "Horaire": null, "Capacite": "1 places", "Info": null, "PMR": null, "Photo": null, "Catégorie": null }, "geometry": { "type": "Point", "coordinates": [ -1.703490077570348, 48.118470831951015 ] } },
{ "type": "Feature", "properties": { "id": 135, "Nom": null, "Categorie": "Parking PMR", "Groupe": "Mobilités et accessibilité", "Etiquette": null, "Campus": null, "Image": null, "Batiment": "B", "Niveau": null, "Mail": null, "Tel": null, "Lien": null, "Horaire": null, "Capacite": "2 places", "Info": null, "PMR": null, "Photo": null, "Catégorie": null }, "geometry": { "type": "Point", "coordinates": [ -1.703081432263843, 48.119243783754698 ] } },
{ "type": "Feature", "properties": { "id": 136, "Nom": null, "Categorie": "Copieur", "Groupe": "Services divers", "Etiquette": null, "Campus": "Villejean", "Image": null, "Batiment": "L", "Niveau": "niveau : 0", "Mail": null, "Tel": null, "Lien": null, "Horaire": null, "Capacite": null, "Info": "Médiathèque", "PMR": null, "Photo": null, "Catégorie": null }, "geometry": { "type": "Point", "coordinates": [ -1.701608619619993, 48.120093928045826 ] } },
{ "type": "Feature", "properties": { "id": 137, "Nom": null, "Categorie": "Copieur", "Groupe": "Services divers", "Etiquette": null, "Campus": "Villejean", "Image": null, "Batiment": "T", "Niveau": "niveau : 2", "Mail": null, "Tel": null, "Lien": null, "Horaire": null, "Capacite": null, "Info": "Pôle Numérique", "PMR": null, "Photo": null, "Catégorie": null }, "geometry": { "type": "Point", "coordinates": [ -1.702702206311532, 48.118487798908397 ] } },
{ "type": "Feature", "properties": { "id": 138, "Nom": null, "Categorie": "Copieur", "Groupe": "Services divers", "Etiquette": null, "Campus": "Villejean", "Image": null, "Batiment": "S", "Niveau": "niveau : 0", "Mail": null, "Tel": null, "Lien": null, "Horaire": null, "Capacite": null, "Info": "Bibliothèque sciences humaines", "PMR": null, "Photo": null, "Catégorie": null }, "geometry": { "type": "Point", "coordinates": [ -1.70068436248069, 48.119264964438592 ] } },
{ "type": "Feature", "properties": { "id": 139, "Nom": null, "Categorie": "Copieur", "Groupe": "Services divers", "Etiquette": null, "Campus": "Villejean", "Image": null, "Batiment": "B", "Niveau": "niveau : 2", "Mail": null, "Tel": null, "Lien": null, "Horaire": null, "Capacite": null, "Info": "Libre-service", "PMR": null, "Photo": null, "Catégorie": null }, "geometry": { "type": "Point", "coordinates": [ -1.703294859744366, 48.119095402051634 ] } },
{ "type": "Feature", "properties": { "id": 140, "Nom": null, "Categorie": "Parking PMR", "Groupe": "Mobilités et accessibilité", "Etiquette": null, "Campus": null, "Image": null, "Batiment": "L", "Niveau": null, "Mail": null, "Tel": null, "Lien": null, "Horaire": null, "Capacite": "3 places", "Info": null, "PMR": null, "Photo": null, "Catégorie": null }, "geometry": { "type": "Point", "coordinates": [ -1.700942855159814, 48.120098563972512 ] } },
{ "type": "Feature", "properties": { "id": 141, "Nom": null, "Categorie": "Parking PMR", "Groupe": "Mobilités et accessibilité", "Etiquette": null, "Campus": null, "Image": null, "Batiment": "I", "Niveau": null, "Mail": null, "Tel": null, "Lien": null, "Horaire": null, "Capacite": "2 places", "Info": null, "PMR": null, "Photo": null, "Catégorie": null }, "geometry": { "type": "Point", "coordinates": [ -1.699512596587057, 48.120089470640792 ] } },
{ "type": "Feature", "properties": { "id": 142, "Nom": null, "Categorie": "Copieur", "Groupe": "Services divers", "Etiquette": null, "Campus": "Villejean", "Image": null, "Batiment": "H", "Niveau": "niveau : 1", "Mail": null, "Tel": null, "Lien": null, "Horaire": null, "Capacite": null, "Info": "Bibliothèque Centrale", "PMR": null, "Photo": null, "Catégorie": null }, "geometry": { "type": "Point", "coordinates": [ -1.701608619619993, 48.120913458462944 ] } },
{ "type": "Feature", "properties": { "id": 143, "Nom": null, "Categorie": "Parking PMR", "Groupe": "Mobilités et accessibilité", "Etiquette": null, "Campus": null, "Image": null, "Batiment": "H", "Niveau": null, "Mail": null, "Tel": null, "Lien": null, "Horaire": null, "Capacite": "4 places", "Info": null, "PMR": null, "Photo": null, "Catégorie": null }, "geometry": { "type": "Point", "coordinates": [ -1.700874747608732, 48.12045320265436 ] } },
{ "type": "Feature", "properties": { "id": 144, "Nom": null, "Categorie": "Parking vélo", "Groupe": "Mobilités et accessibilité", "Etiquette": null, "Campus": "Villejean", "Image": null, "Batiment": " ", "Niveau": null, "Mail": null, "Tel": null, "Lien": null, "Horaire": null, "Capacite": null, "Info": null, "PMR": null, "Photo": null, "Catégorie": null }, "geometry": { "type": "Point", "coordinates": [ -1.702393545997898, 48.119134661852122 ] } },
{ "type": "Feature", "properties": { "id": 145, "Nom": null, "Categorie": "Parking vélo", "Groupe": "Mobilités et accessibilité", "Etiquette": null, "Campus": "Villejean", "Image": null, "Batiment": " ", "Niveau": null, "Mail": null, "Tel": null, "Lien": null, "Horaire": null, "Capacite": null, "Info": null, "PMR": null, "Photo": null, "Catégorie": null }, "geometry": { "type": "Point", "coordinates": [ -1.702570625630715, 48.119311984826105 ] } },
{ "type": "Feature", "properties": { "id": 146, "Nom": null, "Categorie": "Parking vélo", "Groupe": "Mobilités et accessibilité", "Etiquette": null, "Campus": "Villejean", "Image": null, "Batiment": " ", "Niveau": null, "Mail": null, "Tel": null, "Lien": null, "Horaire": null, "Capacite": null, "Info": null, "PMR": null, "Photo": null, "Catégorie": null }, "geometry": { "type": "Point", "coordinates": [ -1.703292565672205, 48.119152848851996 ] } },
{ "type": "Feature", "properties": { "id": 147, "Nom": null, "Categorie": "Parking vélo", "Groupe": "Mobilités et accessibilité", "Etiquette": null, "Campus": "Villejean", "Image": null, "Batiment": " ", "Niveau": null, "Mail": null, "Tel": null, "Lien": null, "Horaire": null, "Capacite": null, "Info": null, "PMR": null, "Photo": null, "Catégorie": null }, "geometry": { "type": "Point", "coordinates": [ -1.70205300824248, 48.119243783754705 ] } },
{ "type": "Feature", "properties": { "id": 148, "Nom": null, "Categorie": "Parking vélo", "Groupe": "Mobilités et accessibilité", "Etiquette": null, "Campus": "Villejean", "Image": null, "Batiment": " ", "Niveau": null, "Mail": null, "Tel": null, "Lien": null, "Horaire": null, "Capacite": null, "Info": null, "PMR": null, "Photo": null, "Catégorie": null }, "geometry": { "type": "Point", "coordinates": [ -1.703708021733814, 48.121003342431479 ] } },
{ "type": "Feature", "properties": { "id": 149, "Nom": null, "Categorie": "Parking vélo", "Groupe": "Mobilités et accessibilité", "Etiquette": null, "Campus": "Villejean", "Image": null, "Batiment": " ", "Niveau": null, "Mail": null, "Tel": null, "Lien": null, "Horaire": null, "Capacite": null, "Info": null, "PMR": null, "Photo": null, "Catégorie": null }, "geometry": { "type": "Point", "coordinates": [ -1.704450394040626, 48.121057901427115 ] } },
{ "type": "Feature", "properties": { "id": 150, "Nom": null, "Categorie": "Parking vélo", "Groupe": "Mobilités et accessibilité", "Etiquette": null, "Campus": "Villejean", "Image": null, "Batiment": " ", "Niveau": null, "Mail": null, "Tel": null, "Lien": null, "Horaire": null, "Capacite": null, "Info": null, "PMR": null, "Photo": null, "Catégorie": null }, "geometry": { "type": "Point", "coordinates": [ -1.702420789018332, 48.11944383997411 ] } },
{ "type": "Feature", "properties": { "id": 151, "Nom": null, "Categorie": "Parking vélo", "Groupe": "Mobilités et accessibilité", "Etiquette": null, "Campus": "Villejean", "Image": null, "Batiment": " ", "Niveau": null, "Mail": null, "Tel": null, "Lien": null, "Horaire": null, "Capacite": null, "Info": null, "PMR": null, "Photo": null, "Catégorie": null }, "geometry": { "type": "Point", "coordinates": [ -1.703340240957961, 48.120053097297792 ] } },
{ "type": "Feature", "properties": { "id": 152, "Nom": null, "Categorie": "Parking vélo", "Groupe": "Mobilités et accessibilité", "Etiquette": null, "Campus": "Villejean", "Image": null, "Batiment": " ", "Niveau": null, "Mail": null, "Tel": null, "Lien": null, "Horaire": null, "Capacite": null, "Info": null, "PMR": null, "Photo": null, "Catégorie": null }, "geometry": { "type": "Point", "coordinates": [ -1.702345870712139, 48.118252584630504 ] } },
{ "type": "Feature", "properties": { "id": 153, "Nom": null, "Categorie": "Parking vélo", "Groupe": "Mobilités et accessibilité", "Etiquette": null, "Campus": "Villejean", "Image": null, "Batiment": " ", "Niveau": null, "Mail": null, "Tel": null, "Lien": null, "Horaire": null, "Capacite": null, "Info": null, "PMR": null, "Photo": null, "Catégorie": null }, "geometry": { "type": "Point", "coordinates": [ -1.700942855159814, 48.119311984826119 ] } },
{ "type": "Feature", "properties": { "id": 154, "Nom": null, "Categorie": "Parking vélo", "Groupe": "Mobilités et accessibilité", "Etiquette": null, "Campus": "Villejean", "Image": null, "Batiment": " ", "Niveau": null, "Mail": null, "Tel": null, "Lien": null, "Horaire": null, "Capacite": null, "Info": null, "PMR": null, "Photo": null, "Catégorie": null }, "geometry": { "type": "Point", "coordinates": [ -1.70393277665239, 48.119034633237838 ] } },
{ "type": "Feature", "properties": { "id": 155, "Nom": null, "Categorie": "Parking vélo", "Groupe": "Mobilités et accessibilité", "Etiquette": null, "Campus": "Villejean", "Image": null, "Batiment": " ", "Niveau": null, "Mail": null, "Tel": null, "Lien": null, "Horaire": null, "Capacite": null, "Info": null, "PMR": null, "Photo": null, "Catégorie": null }, "geometry": { "type": "Point", "coordinates": [ -1.703224458121121, 48.118911870581364 ] } },
{ "type": "Feature", "properties": { "id": 156, "Nom": null, "Categorie": "Parking vélo", "Groupe": "Mobilités et accessibilité", "Etiquette": null, "Campus": "Villejean", "Image": null, "Batiment": " ", "Niveau": null, "Mail": null, "Tel": null, "Lien": null, "Horaire": null, "Capacite": null, "Info": null, "PMR": null, "Photo": null, "Catégorie": null }, "geometry": { "type": "Point", "coordinates": [ -1.703258511896662, 48.117852462134898 ] } },
{ "type": "Feature", "properties": { "id": 157, "Nom": null, "Categorie": "Parking vélo", "Groupe": "Mobilités et accessibilité", "Etiquette": null, "Campus": "Villejean", "Image": null, "Batiment": " ", "Niveau": null, "Mail": null, "Tel": null, "Lien": null, "Horaire": null, "Capacite": null, "Info": null, "PMR": null, "Photo": null, "Catégorie": null }, "geometry": { "type": "Point", "coordinates": [ -1.704109856285209, 48.118566314862214 ] } },
{ "type": "Feature", "properties": { "id": 158, "Nom": null, "Categorie": "Parking vélo", "Groupe": "Mobilités et accessibilité", "Etiquette": null, "Campus": "Villejean", "Image": null, "Batiment": " ", "Niveau": null, "Mail": null, "Tel": null, "Lien": null, "Horaire": null, "Capacite": null, "Info": null, "PMR": null, "Photo": null, "Catégorie": null }, "geometry": { "type": "Point", "coordinates": [ -1.702345870712139, 48.118698171923995 ] } },
{ "type": "Feature", "properties": { "id": 159, "Nom": null, "Categorie": "Parking vélo", "Groupe": "Mobilités et accessibilité", "Etiquette": null, "Campus": "Villejean", "Image": null, "Batiment": " ", "Niveau": null, "Mail": null, "Tel": null, "Lien": null, "Horaire": null, "Capacite": null, "Info": null, "PMR": null, "Photo": null, "Catégorie": null }, "geometry": { "type": "Point", "coordinates": [ -1.703326619447745, 48.11775243102408 ] } },
{ "type": "Feature", "properties": { "id": 160, "Nom": null, "Categorie": "Cafétéria", "Groupe": "Restauration et logement", "Etiquette": null, "Campus": "Villejean", "Image": null, "Batiment": "N", "Niveau": "niveau : 0", "Mail": null, "Tel": null, "Lien": null, "Horaire": null, "Capacite": null, "Info": null, "PMR": null, "Photo": null, "Catégorie": null }, "geometry": { "type": "Point", "coordinates": [ -1.704007694958583, 48.118520846831416 ] } },
{ "type": "Feature", "properties": { "id": 161, "Nom": null, "Categorie": "Cafétéria", "Groupe": "Restauration et logement", "Etiquette": null, "Campus": "Villejean", "Image": null, "Batiment": "B", "Niveau": "niveau : 0", "Mail": null, "Tel": null, "Lien": null, "Horaire": null, "Capacite": null, "Info": null, "PMR": null, "Photo": null, "Catégorie": null }, "geometry": { "type": "Point", "coordinates": [ -1.703537752856105, 48.119161942349514 ] } },
{ "type": "Feature", "properties": { "id": 162, "Nom": null, "Categorie": "Cafétéria", "Groupe": "Restauration et logement", "Etiquette": null, "Campus": "Villejean", "Image": null, "Batiment": "L", "Niveau": "niveau : 0", "Mail": null, "Tel": null, "Lien": null, "Horaire": null, "Capacite": null, "Info": null, "PMR": null, "Photo": null, "Catégorie": null }, "geometry": { "type": "Point", "coordinates": [ -1.701501337078702, 48.119739376145432 ] } },
{ "type": "Feature", "properties": { "id": 163, "Nom": null, "Categorie": "Cafétéria", "Groupe": "Restauration et logement", "Etiquette": null, "Campus": "Villejean", "Image": null, "Batiment": "R", "Niveau": "niveau : 0", "Mail": null, "Tel": null, "Lien": null, "Horaire": null, "Capacite": null, "Info": null, "PMR": null, "Photo": null, "Catégorie": null }, "geometry": { "type": "Point", "coordinates": [ -1.701508147833811, 48.118948244732373 ] } },
{ "type": "Feature", "properties": { "id": 164, "Nom": null, "Categorie": "Cafétéria", "Groupe": "Restauration et logement", "Etiquette": null, "Campus": "Villejean", "Image": null, "Batiment": "B'", "Niveau": "niveau : 0", "Mail": null, "Tel": null, "Lien": null, "Horaire": null, "Capacite": null, "Info": null, "PMR": null, "Photo": null, "Catégorie": null }, "geometry": { "type": "Point", "coordinates": [ -1.703646724937839, 48.120439562750313 ] } },
{ "type": "Feature", "properties": { "id": 165, "Nom": null, "Categorie": "Cafétéria", "Groupe": "Restauration et logement", "Etiquette": null, "Campus": "Villejean", "Image": null, "Batiment": "O", "Niveau": "niveau : 0", "Mail": null, "Tel": null, "Lien": null, "Horaire": null, "Capacite": null, "Info": null, "PMR": null, "Photo": null, "Catégorie": null }, "geometry": { "type": "Point", "coordinates": [ -1.704143910060749, 48.120780559264631 ] } },
{ "type": "Feature", "properties": { "id": 166, "Nom": null, "Categorie": "Cafétéria", "Groupe": "Restauration et logement", "Etiquette": null, "Campus": "Villejean", "Image": null, "Batiment": "E", "Niveau": "niveau : 0", "Mail": null, "Tel": null, "Lien": null, "Horaire": null, "Capacite": null, "Info": null, "PMR": null, "Photo": null, "Catégorie": null }, "geometry": { "type": "Point", "coordinates": [ -1.702577436385825, 48.119971257181874 ] } },
{ "type": "Feature", "properties": { "id": 167, "Nom": null, "Categorie": "Cafétéria", "Groupe": "Restauration et logement", "Etiquette": null, "Campus": "Villejean", "Image": null, "Batiment": "D", "Niveau": "niveau : 0", "Mail": null, "Tel": null, "Lien": null, "Horaire": null, "Capacite": null, "Info": null, "PMR": null, "Photo": null, "Catégorie": null }, "geometry": { "type": "Point", "coordinates": [ -1.703088243018953, 48.119943977114275 ] } },
{ "type": "Feature", "properties": { "id": 168, "Nom": null, "Categorie": "Parking vélo", "Groupe": "Mobilités et accessibilité", "Etiquette": null, "Campus": "Mazier", "Image": null, "Batiment": " ", "Niveau": null, "Mail": null, "Tel": null, "Lien": null, "Horaire": null, "Capacite": null, "Info": null, "PMR": null, "Photo": null, "Catégorie": null }, "geometry": { "type": "Point", "coordinates": [ -2.742334040260729, 48.513569426696655 ] } },
{ "type": "Feature", "properties": { "id": 169, "Nom": null, "Categorie": "Cafétéria", "Groupe": "Restauration et logement", "Etiquette": null, "Campus": "Villejean", "Image": null, "Batiment": "O", "Niveau": "niveau : 0", "Mail": null, "Tel": null, "Lien": null, "Horaire": null, "Capacite": null, "Info": null, "PMR": null, "Photo": null, "Catégorie": null }, "geometry": { "type": "Point", "coordinates": [ -1.703816993815547, 48.120703266919747 ] } },
{ "type": "Feature", "properties": { "id": 170, "Nom": null, "Categorie": "Parking vélo", "Groupe": "Mobilités et accessibilité", "Etiquette": null, "Campus": "La Harpe", "Image": null, "Batiment": " ", "Niveau": null, "Mail": null, "Tel": null, "Lien": null, "Horaire": null, "Capacite": null, "Info": null, "PMR": null, "Photo": null, "Catégorie": null }, "geometry": { "type": "Point", "coordinates": [ -1.709152609221346, 48.124736250670686 ] } },
{ "type": "Feature", "properties": { "id": 171, "Nom": null, "Categorie": "Parking vélo", "Groupe": "Mobilités et accessibilité", "Etiquette": null, "Campus": "Mazier", "Image": null, "Batiment": " ", "Niveau": null, "Mail": null, "Tel": null, "Lien": null, "Horaire": null, "Capacite": null, "Info": null, "PMR": null, "Photo": null, "Catégorie": null }, "geometry": { "type": "Point", "coordinates": [ -2.742219839950806, 48.513720728783433 ] } },
{ "type": "Feature", "properties": { "id": 172, "Nom": null, "Categorie": "Cafétéria", "Groupe": "Restauration et logement", "Etiquette": null, "Campus": "Villejean", "Image": null, "Batiment": "S", "Niveau": "niveau : 0", "Mail": null, "Tel": null, "Lien": null, "Horaire": null, "Capacite": null, "Info": null, "PMR": null, "Photo": null, "Catégorie": null }, "geometry": { "type": "Point", "coordinates": [ -1.700609128159505, 48.119352905425508 ] } },
{ "type": "Feature", "properties": { "id": 173, "Nom": null, "Categorie": "Cafétéria", "Groupe": "Restauration et logement", "Etiquette": null, "Campus": "Villejean", "Image": null, "Batiment": "L", "Niveau": "niveau : 0", "Mail": null, "Tel": null, "Lien": null, "Horaire": null, "Capacite": null, "Info": null, "PMR": null, "Photo": null, "Catégorie": null }, "geometry": { "type": "Point", "coordinates": [ -1.701235717629475, 48.119784843097811 ] } },
{ "type": "Feature", "properties": { "id": 174, "Nom": null, "Categorie": "Cafétéria", "Groupe": "Restauration et logement", "Etiquette": null, "Campus": "Villejean", "Image": null, "Batiment": "H", "Niveau": "niveau : 0", "Mail": null, "Tel": null, "Lien": null, "Horaire": null, "Capacite": null, "Info": null, "PMR": null, "Photo": null, "Catégorie": null }, "geometry": { "type": "Point", "coordinates": [ -1.701841874834122, 48.120766919447505 ] } },
{ "type": "Feature", "properties": { "id": 175, "Nom": null, "Categorie": "Cafétéria", "Groupe": "Restauration et logement", "Etiquette": null, "Campus": "Villejean", "Image": null, "Batiment": "I", "Niveau": "niveau : 0", "Mail": null, "Tel": null, "Lien": null, "Horaire": null, "Capacite": null, "Info": null, "PMR": null, "Photo": null, "Catégorie": null }, "geometry": { "type": "Point", "coordinates": [ -1.699444489035974, 48.119648442119967 ] } },
{ "type": "Feature", "properties": { "id": 176, "Nom": null, "Categorie": "Ascenseur", "Groupe": "Mobilités et accessibilité", "Etiquette": null, "Campus": "Villejean", "Image": null, "Batiment": "A", "Niveau": null, "Mail": null, "Tel": null, "Lien": null, "Horaire": null, "Capacite": null, "Info": null, "PMR": null, "Photo": null, "Catégorie": null }, "geometry": { "type": "Point", "coordinates": [ -1.70336273830941, 48.118079876421859 ] } },
{ "type": "Feature", "properties": { "id": 177, "Nom": "Station Vélostar", "Categorie": "Station vélostar", "Groupe": "Mobilités et accessibilité", "Etiquette": null, "Campus": "Villejean", "Image": null, "Batiment": null, "Niveau": null, "Mail": null, "Tel": null, "Lien": null, "Horaire": null, "Capacite": "26 places", "Info": null, "PMR": null, "Photo": null, "Catégorie": null }, "geometry": { "type": "Point", "coordinates": [ -1.704123477795426, 48.121080634324862 ] } },
{ "type": "Feature", "properties": { "id": 178, "Nom": null, "Categorie": "Ascenseur", "Groupe": "Mobilités et accessibilité", "Etiquette": null, "Campus": "Villejean", "Image": null, "Batiment": "R", "Niveau": null, "Mail": null, "Tel": null, "Lien": null, "Horaire": null, "Capacite": null, "Info": null, "PMR": null, "Photo": null, "Catégorie": null }, "geometry": { "type": "Point", "coordinates": [ -1.701844443613346, 48.119057848617381 ] } },
{ "type": "Feature", "properties": { "id": 179, "Nom": null, "Categorie": "Ascenseur", "Groupe": "Mobilités et accessibilité", "Etiquette": null, "Campus": "Villejean", "Image": null, "Batiment": "T", "Niveau": null, "Mail": null, "Tel": null, "Lien": null, "Horaire": null, "Capacite": null, "Info": null, "PMR": null, "Photo": null, "Catégorie": null }, "geometry": { "type": "Point", "coordinates": [ -1.702433292504157, 48.1184621804993 ] } },
{ "type": "Feature", "properties": { "id": 180, "Nom": null, "Categorie": "Parking", "Groupe": "Mobilités et accessibilité", "Etiquette": null, "Campus": "Villejean", "Image": null, "Batiment": "J", "Niveau": null, "Mail": null, "Tel": null, "Lien": null, "Horaire": null, "Capacite": "18 places", "Info": null, "PMR": null, "Photo": null, "Catégorie": null }, "geometry": { "type": "Point", "coordinates": [ -1.699471732056408, 48.120057643967087 ] } },
{ "type": "Feature", "properties": { "id": 181, "Nom": null, "Categorie": "Parking", "Groupe": "Mobilités et accessibilité", "Etiquette": null, "Campus": "Villejean", "Image": null, "Batiment": "G", "Niveau": null, "Mail": null, "Tel": null, "Lien": null, "Horaire": null, "Capacite": "24 places", "Info": null, "PMR": null, "Photo": null, "Catégorie": null }, "geometry": { "type": "Point", "coordinates": [ -1.699069897505013, 48.119448386697314 ] } },
{ "type": "Feature", "properties": { "id": 182, "Nom": "Station Vélostar", "Categorie": "Station vélostar", "Groupe": "Mobilités et accessibilité", "Etiquette": null, "Campus": "La Harpe", "Image": null, "Batiment": null, "Niveau": null, "Mail": null, "Tel": null, "Lien": null, "Horaire": null, "Capacite": "25 places", "Info": null, "PMR": null, "Photo": null, "Catégorie": null }, "geometry": { "type": "Point", "coordinates": [ -1.710313406384557, 48.125623945918036 ] } },
{ "type": "Feature", "properties": { "id": 183, "Nom": null, "Categorie": "Parking", "Groupe": "Mobilités et accessibilité", "Etiquette": null, "Campus": "Villejean", "Image": null, "Batiment": "H", "Niveau": null, "Mail": null, "Tel": null, "Lien": null, "Horaire": null, "Capacite": "185 places", "Info": null, "PMR": null, "Photo": null, "Catégorie": null }, "geometry": { "type": "Point", "coordinates": [ -1.70071128948613, 48.120966969735534 ] } },
{ "type": "Feature", "properties": { "id": 184, "Nom": null, "Categorie": "Ascenseur", "Groupe": "Mobilités et accessibilité", "Etiquette": null, "Campus": "Villejean", "Image": null, "Batiment": "B", "Niveau": null, "Mail": null, "Tel": null, "Lien": null, "Horaire": null, "Capacite": null, "Info": null, "PMR": null, "Photo": null, "Catégorie": null }, "geometry": { "type": "Point", "coordinates": [ -1.703593600654587, 48.119612278126141 ] } },
{ "type": "Feature", "properties": { "id": 185, "Nom": null, "Categorie": "Ascenseur", "Groupe": "Mobilités et accessibilité", "Etiquette": null, "Campus": "Villejean", "Image": null, "Batiment": "B", "Niveau": null, "Mail": null, "Tel": null, "Lien": null, "Horaire": null, "Capacite": null, "Info": null, "PMR": null, "Photo": null, "Catégorie": null }, "geometry": { "type": "Point", "coordinates": [ -1.703516846420347, 48.119002205181047 ] } },
{ "type": "Feature", "properties": { "id": 186, "Nom": null, "Categorie": "Ascenseur", "Groupe": "Mobilités et accessibilité", "Etiquette": null, "Campus": "Villejean", "Image": null, "Batiment": "P", "Niveau": null, "Mail": null, "Tel": null, "Lien": null, "Horaire": null, "Capacite": null, "Info": null, "PMR": null, "Photo": null, "Catégorie": null }, "geometry": { "type": "Point", "coordinates": [ -1.703627180632066, 48.120685092242461 ] } },
{ "type": "Feature", "properties": { "id": 187, "Nom": null, "Categorie": "Ascenseur", "Groupe": "Mobilités et accessibilité", "Etiquette": null, "Campus": "Villejean", "Image": null, "Batiment": "O", "Niveau": null, "Mail": null, "Tel": null, "Lien": null, "Horaire": null, "Capacite": null, "Info": null, "PMR": null, "Photo": null, "Catégorie": null }, "geometry": { "type": "Point", "coordinates": [ -1.703775891960907, 48.120787568836555 ] } },
{ "type": "Feature", "properties": { "id": 188, "Nom": null, "Categorie": "Ascenseur", "Groupe": "Mobilités et accessibilité", "Etiquette": null, "Campus": "Villejean", "Image": null, "Batiment": "L", "Niveau": null, "Mail": null, "Tel": null, "Lien": null, "Horaire": null, "Capacite": null, "Info": null, "PMR": null, "Photo": null, "Catégorie": null }, "geometry": { "type": "Point", "coordinates": [ -1.701543423100933, 48.119745580502077 ] } },
{ "type": "Feature", "properties": { "id": 189, "Nom": null, "Categorie": "Ascenseur", "Groupe": "Mobilités et accessibilité", "Etiquette": null, "Campus": "Villejean", "Image": null, "Batiment": "R", "Niveau": null, "Mail": null, "Tel": null, "Lien": null, "Horaire": null, "Capacite": null, "Info": null, "PMR": null, "Photo": null, "Catégorie": null }, "geometry": { "type": "Point", "coordinates": [ -1.701791675077303, 48.118812056292683 ] } },
{ "type": "Feature", "properties": { "id": 190, "Nom": null, "Categorie": "Ascenseur", "Groupe": "Mobilités et accessibilité", "Etiquette": null, "Campus": "Villejean", "Image": null, "Batiment": "D", "Niveau": null, "Mail": null, "Tel": null, "Lien": null, "Horaire": null, "Capacite": null, "Info": null, "PMR": null, "Photo": null, "Catégorie": null }, "geometry": { "type": "Point", "coordinates": [ -1.703013146758143, 48.119922916159702 ] } },
{ "type": "Feature", "properties": { "id": 191, "Nom": null, "Categorie": "Ascenseur", "Groupe": "Mobilités et accessibilité", "Etiquette": null, "Campus": "Villejean", "Image": null, "Batiment": "E", "Niveau": null, "Mail": null, "Tel": null, "Lien": null, "Horaire": null, "Capacite": null, "Info": null, "PMR": null, "Photo": null, "Catégorie": null }, "geometry": { "type": "Point", "coordinates": [ -1.702594596324551, 48.119878882532056 ] } },
{ "type": "Feature", "properties": { "id": 192, "Nom": null, "Categorie": "Parking", "Groupe": "Mobilités et accessibilité", "Etiquette": null, "Campus": "Mazier", "Image": null, "Batiment": "C", "Niveau": null, "Mail": null, "Tel": null, "Lien": null, "Horaire": null, "Capacite": null, "Info": null, "PMR": null, "Photo": null, "Catégorie": null }, "geometry": { "type": "Point", "coordinates": [ -2.742085142149356, 48.513740126454181 ] } },
{ "type": "Feature", "properties": { "id": 193, "Nom": null, "Categorie": "Parking", "Groupe": "Mobilités et accessibilité", "Etiquette": null, "Campus": "Mazier", "Image": null, "Batiment": "D", "Niveau": null, "Mail": null, "Tel": null, "Lien": null, "Horaire": null, "Capacite": null, "Info": null, "PMR": null, "Photo": null, "Catégorie": null }, "geometry": { "type": "Point", "coordinates": [ -2.740890431214771, 48.513334713591007 ] } },
{ "type": "Feature", "properties": { "id": 194, "Nom": null, "Categorie": "Parking", "Groupe": "Mobilités et accessibilité", "Etiquette": null, "Campus": "La Harpe", "Image": null, "Batiment": "Gymnase", "Niveau": null, "Mail": null, "Tel": null, "Lien": null, "Horaire": null, "Capacite": null, "Info": null, "PMR": null, "Photo": null, "Catégorie": null }, "geometry": { "type": "Point", "coordinates": [ -1.709551317810777, 48.125799124947626 ] } },
{ "type": "Feature", "properties": { "id": 195, "Nom": null, "Categorie": "Parking", "Groupe": "Mobilités et accessibilité", "Etiquette": null, "Campus": "La Harpe", "Image": null, "Batiment": "Gymnase", "Niveau": null, "Mail": null, "Tel": null, "Lien": null, "Horaire": null, "Capacite": null, "Info": null, "PMR": null, "Photo": null, "Catégorie": null }, "geometry": { "type": "Point", "coordinates": [ -1.708940637566203, 48.125777227601247 ] } },
{ "type": "Feature", "properties": { "id": 196, "Nom": null, "Categorie": "Parking vélo", "Groupe": "Mobilités et accessibilité", "Etiquette": null, "Campus": "Villejean", "Image": null, "Batiment": " ", "Niveau": null, "Mail": null, "Tel": null, "Lien": null, "Horaire": null, "Capacite": null, "Info": null, "PMR": null, "Photo": null, "Catégorie": null }, "geometry": { "type": "Point", "coordinates": [ -1.700541020608421, 48.117843368405595 ] } },
{ "type": "Feature", "properties": { "id": 197, "Nom": null, "Categorie": "Parking vélo", "Groupe": "Mobilités et accessibilité", "Etiquette": null, "Campus": "Villejean", "Image": null, "Batiment": " ", "Niveau": null, "Mail": null, "Tel": null, "Lien": null, "Horaire": null, "Capacite": null, "Info": null, "PMR": null, "Photo": null, "Catégorie": null }, "geometry": { "type": "Point", "coordinates": [ -1.70092242289449, 48.119853043450945 ] } },
{ "type": "Feature", "properties": { "id": 198, "Nom": null, "Categorie": "Parking vélo", "Groupe": "Mobilités et accessibilité", "Etiquette": null, "Campus": "Villejean", "Image": null, "Batiment": " ", "Niveau": null, "Mail": null, "Tel": null, "Lien": null, "Horaire": null, "Capacite": null, "Info": null, "PMR": null, "Photo": null, "Catégorie": null }, "geometry": { "type": "Point", "coordinates": [ -1.70209387277313, 48.120439562750313 ] } },
{ "type": "Feature", "properties": { "id": 199, "Nom": null, "Categorie": "Parking vélo", "Groupe": "Mobilités et accessibilité", "Etiquette": null, "Campus": "Villejean", "Image": null, "Batiment": " ", "Niveau": null, "Mail": null, "Tel": null, "Lien": null, "Horaire": null, "Capacite": null, "Info": null, "PMR": null, "Photo": null, "Catégorie": null }, "geometry": { "type": "Point", "coordinates": [ -1.699778216036283, 48.12003036394534 ] } },
{ "type": "Feature", "properties": { "id": 200, "Nom": null, "Categorie": "Parking", "Groupe": "Mobilités et accessibilité", "Etiquette": null, "Campus": "Villejean", "Image": null, "Batiment": "T", "Niveau": null, "Mail": null, "Tel": null, "Lien": null, "Horaire": null, "Capacite": "66 places", "Info": null, "PMR": null, "Photo": null, "Catégorie": null }, "geometry": { "type": "Point", "coordinates": [ -1.702223277120189, 48.118248037801443 ] } },
{ "type": "Feature", "properties": { "id": 201, "Nom": null, "Categorie": "Parking", "Groupe": "Mobilités et accessibilité", "Etiquette": null, "Campus": "Villejean", "Image": null, "Batiment": "R", "Niveau": null, "Mail": null, "Tel": null, "Lien": null, "Horaire": null, "Capacite": "354 places", "Info": null, "PMR": null, "Photo": null, "Catégorie": null }, "geometry": { "type": "Point", "coordinates": [ -1.701828253323903, 48.118188928987351 ] } },
{ "type": "Feature", "properties": { "id": 202, "Nom": null, "Categorie": "Parking", "Groupe": "Mobilités et accessibilité", "Etiquette": null, "Campus": "Villejean", "Image": null, "Batiment": "H", "Niveau": null, "Mail": null, "Tel": null, "Lien": null, "Horaire": null, "Capacite": "185 places", "Info": null, "PMR": null, "Photo": null, "Catégorie": null }, "geometry": { "type": "Point", "coordinates": [ -1.700384373240928, 48.120385003097965 ] } },
{ "type": "Feature", "properties": { "id": 203, "Nom": null, "Categorie": "Parking", "Groupe": "Mobilités et accessibilité", "Etiquette": null, "Campus": "Villejean", "Image": null, "Batiment": "L", "Niveau": null, "Mail": null, "Tel": null, "Lien": null, "Horaire": null, "Capacite": "10 places", "Info": null, "PMR": null, "Photo": null, "Catégorie": null }, "geometry": { "type": "Point", "coordinates": [ -1.700942855159815, 48.120112203967089 ] } },
{ "type": "Feature", "properties": { "id": 204, "Nom": null, "Categorie": "Parking", "Groupe": "Mobilités et accessibilité", "Etiquette": null, "Campus": "La Harpe", "Image": null, "Batiment": "Gymnase", "Niveau": null, "Mail": null, "Tel": null, "Lien": null, "Horaire": null, "Capacite": null, "Info": null, "PMR": null, "Photo": null, "Catégorie": null }, "geometry": { "type": "Point", "coordinates": [ -1.709538700450355, 48.126004622666699 ] } },
{ "type": "Feature", "properties": { "id": 205, "Nom": null, "Categorie": "Parking", "Groupe": "Mobilités et accessibilité", "Etiquette": null, "Campus": "La Harpe", "Image": null, "Batiment": "Gymnase", "Niveau": null, "Mail": null, "Tel": null, "Lien": null, "Horaire": null, "Capacite": null, "Info": null, "PMR": null, "Photo": null, "Catégorie": null },