{
"type": "FeatureCollection",
"name": "points_iav",
"crs": { "type": "name", "properties": { "name": "urn:ogc:def:crs:OGC:1.3:CRS84" } },
"features": [
{ "type": "Feature", "properties": { "fid": 1, "name": null, "label": null, "brochure": null, "mail": null, "image": null, "grouping": null, "department": null, "label_state": null, "icon_name": "entrance", "id": null }, "geometry": { "type": "Point", "coordinates": [ -6.863998042951765, 33.981314851504933 ] } },
{ "type": "Feature", "properties": { "fid": 2, "name": "Pavillon 3 (Garçons)", "label": "R", "brochure": null, "mail": "economat.iav@gmail.com", "image": null, "grouping": "room", "department": "Internat", "label_state": 0, "icon_name": null, "id": 3 }, "geometry": { "type": "Point", "coordinates": [ -6.861735049146822, 33.980071693528586 ] } },
{ "type": "Feature", "properties": { "fid": 3, "name": "Pavillon 1 (Garçons)", "label": "R", "brochure": null, "mail": "economat.iav@gmail.com", "image": null, "grouping": "room", "department": "Internat", "label_state": 0, "icon_name": null, "id": 4 }, "geometry": { "type": "Point", "coordinates": [ -6.862379882125106, 33.979836794742617 ] } },
{ "type": "Feature", "properties": { "fid": 4, "name": "Pavillon 8 (Garçons)", "label": "R", "brochure": null, "mail": "economat.iav@gmail.com", "image": null, "grouping": "room", "department": "Internat", "label_state": 0, "icon_name": null, "id": 5 }, "geometry": { "type": "Point", "coordinates": [ -6.861764227209731, 33.979732930716061 ] } },
{ "type": "Feature", "properties": { "fid": 5, "name": "Pavillon 7 (Garçons)", "label": "R", "brochure": null, "mail": "economat.iav@gmail.com", "image": null, "grouping": "room", "department": "Internat", "label_state": 0, "icon_name": null, "id": 6 }, "geometry": { "type": "Point", "coordinates": [ -6.862308448886195, 33.979776113811518 ] } },
{ "type": "Feature", "properties": { "fid": 6, "name": "Formation Industrie Agro-Alimentaire", "label": "IAA", "brochure": "<a href=\"https://iav.ac.ma/sites/default/files/2020-06/Industries-Agro-Alimentaires.pdf\" target=\"_blank\">Filière Industries Agro-Alimentaires</a>", "mail": null, "image": null, "grouping": "departments", "department": "Département", "label_state": 1, "icon_name": null, "id": 7 }, "geometry": { "type": "Point", "coordinates": [ -6.866001703033977, 33.975050075307017 ] } },
{ "type": "Feature", "properties": { "fid": 7, "name": "Formation Médecine Vétérinaire", "label": "Véto", "brochure": "", "mail": null, "image": null, "grouping": "departments", "department": "Département", "label_state": 1, "icon_name": null, "id": 8 }, "geometry": { "type": "Point", "coordinates": [ -6.867814776877324, 33.97367902092622 ] } },
{ "type": "Feature", "properties": { "fid": 8, "name": "Formation Topographie", "label": "Topo", "brochure": "<a href=\"https://iav.ac.ma/sites/default/files/2020-06/SGIT.pdf\" target=\"_blank\">Filière Géomatiques et Ingénierie Topographique</a>", "mail": "m.bouziani@iav.ac.ma", "image": "./assets/img/popup/LogoESGIT_HD.png", "grouping": "departments", "department": "Département", "label_state": 1, "icon_name": null, "id": 9 }, "geometry": { "type": "Point", "coordinates": [ -6.866917503836601, 33.976574645429309 ] } },
{ "type": "Feature", "properties": { "fid": 10, "name": "Formation Halieutique", "label": "Hal", "brochure": null, "mail": null, "image": null, "grouping": "departments", "department": "Département", "label_state": 1, "icon_name": null, "id": 11 }, "geometry": { "type": "Point", "coordinates": [ -6.865291295706158, 33.975609084351852 ] } },
{ "type": "Feature", "properties": { "fid": 11, "name": "Salle BDE", "label": "B", "brochure": null, "mail": null, "image": null, "grouping": "bde", "department": "Vie Associative", "label_state": 0, "icon_name": null, "id": 12 }, "geometry": { "type": "Point", "coordinates": [ -6.86196635649154, 33.980355632269017 ] } },
{ "type": "Feature", "properties": { "fid": 12, "name": "Pavillon 2 (Garçons)", "label": "B", "brochure": null, "mail": null, "image": null, "grouping": "room", "department": "Internat", "label_state": 0, "icon_name": null, "id": 13 }, "geometry": { "type": "Point", "coordinates": [ -6.861835695289789, 33.979659986957607 ] } },
{ "type": "Feature", "properties": { "fid": 13, "name": "Restaurant IAV ", "label": "B", "brochure": null, "mail": null, "image": null, "grouping": "food", "department": "Restaus", "label_state": 0, "icon_name": null, "id": 14 }, "geometry": { "type": "Point", "coordinates": [ -6.862041618129224, 33.980163412716728 ] } },
{ "type": "Feature", "properties": { "fid": 14, "name": "Buvette IAV", "label": "B", "brochure": null, "mail": null, "image": null, "grouping": "food", "department": "Buvettes", "label_state": 0, "icon_name": null, "id": 15 }, "geometry": { "type": "Point", "coordinates": [ -6.862504811850894, 33.980444392165069 ] } },
{ "type": "Feature", "properties": { "fid": 15, "name": "CDA", "label": "B", "brochure": null, "mail": null, "image": null, "grouping": "cda", "department": "CDA et Salle d'étude", "label_state": 0, "icon_name": null, "id": 16 }, "geometry": { "type": "Point", "coordinates": [ -6.862555029699106, 33.980116407966143 ] } },
{ "type": "Feature", "properties": { "fid": 16, "name": "Salle d'études IAV", "label": "B", "brochure": null, "mail": null, "image": null, "grouping": "study", "department": "CDA et Salle d'étude", "label_state": 0, "icon_name": null, "id": 17 }, "geometry": { "type": "Point", "coordinates": [ -6.862214190997233, 33.98030316497794 ] } },
{ "type": "Feature", "properties": { "fid": 17, "name": "Médecin de l'IAV", "label": "B", "brochure": null, "mail": null, "image": null, "grouping": "health", "department": "Santé", "label_state": 0, "icon_name": null, "id": 18 }, "geometry": { "type": "Point", "coordinates": [ -6.861897601531566, 33.980337438326352 ] } },
{ "type": "Feature", "properties": { "fid": 18, "name": "Salle de Sport", "label": "B", "brochure": null, "mail": null, "image": null, "grouping": "game", "department": "Equipement Sportif", "label_state": 0, "icon_name": null, "id": 19 }, "geometry": { "type": "Point", "coordinates": [ -6.861560928107256, 33.980475685150651 ] } },
{ "type": "Feature", "properties": { "fid": 19, "name": "Epicerie M'bark", "label": "EM", "brochure": null, "mail": null, "image": null, "grouping": "press", "department": "Divers", "label_state": 0, "icon_name": null, "id": 20 }, "geometry": { "type": "Point", "coordinates": [ -6.862775755004384, 33.980792622767638 ] } },
{ "type": "Feature", "properties": { "fid": 20, "name": "Grand-Amphi AGRO", "label": "B", "brochure": null, "mail": null, "image": null, "grouping": "amphitheater", "department": "Amphithéàtres", "label_state": 0, "icon_name": null, "id": 21 }, "geometry": { "type": "Point", "coordinates": [ -6.866898976074701, 33.974809743766848 ] } },
{ "type": "Feature", "properties": { "fid": 21, "name": "Amphithéàtre Véto", "label": "B", "brochure": null, "mail": null, "image": null, "grouping": "amphitheater", "department": "Amphithéàtres", "label_state": 0, "icon_name": null, "id": 22 }, "geometry": { "type": "Point", "coordinates": [ -6.867248356727723, 33.976338548806147 ] } },
{ "type": "Feature", "properties": { "fid": 22, "name": "Amphithéâtre Paul Pascon ", "label": "B", "brochure": null, "mail": null, "image": null, "grouping": "amphitheater", "department": "Amphithéàtre", "label_state": 0, "icon_name": null, "id": 23 }, "geometry": { "type": "Point", "coordinates": [ -6.863151074524071, 33.980082215439772 ] } },
{ "type": "Feature", "properties": { "fid": 23, "name": "Bureau d'ordre", "label": "B", "brochure": null, "mail": null, "image": null, "grouping": "admin", "department": "Administration ", "label_state": 0, "icon_name": null, "id": 24 }, "geometry": { "type": "Point", "coordinates": [ -6.863611621748512, 33.980265375600297 ] } },
{ "type": "Feature", "properties": { "fid": 24, "name": "Club El Harka", "label": "B", "brochure": null, "mail": null, "image": null, "grouping": "service", "department": "Services", "label_state": 0, "icon_name": null, "id": 25 }, "geometry": { "type": "Point", "coordinates": [ -6.868799395081303, 33.976192444169428 ] } },
{ "type": "Feature", "properties": { "fid": 25, "name": "Club Equestre El Harka", "label": "H", "brochure": null, "mail": null, "image": null, "grouping": "service", "department": "Services", "label_state": 0, "icon_name": null, "id": 26 }, "geometry": { "type": "Point", "coordinates": [ -6.868157805154839, 33.976903380861877 ] } },
{ "type": "Feature", "properties": { "fid": 26, "name": "Espace Equitation 1", "label": "E2", "brochure": null, "mail": null, "image": null, "grouping": "service", "department": "Services", "label_state": 0, "icon_name": null, "id": 27 }, "geometry": { "type": "Point", "coordinates": [ -6.868501362796979, 33.97578800959532 ] } },
{ "type": "Feature", "properties": { "fid": 27, "name": "Espace Equitation 2", "label": "E1", "brochure": null, "mail": null, "image": null, "grouping": "service", "department": "Services", "label_state": 0, "icon_name": null, "id": 28 }, "geometry": { "type": "Point", "coordinates": [ -6.868120220266409, 33.974875384980443 ] } },
{ "type": "Feature", "properties": { "fid": 28, "name": "Restaurant Apesa", "label": "B", "brochure": null, "mail": null, "image": null, "grouping": "food", "department": "Restaus", "label_state": 0, "icon_name": null, "id": 29 }, "geometry": { "type": "Point", "coordinates": [ -6.868063048886823, 33.972922558875894 ] } },
{ "type": "Feature", "properties": { "fid": 29, "name": "Clinique Equine", "label": "B", "brochure": null, "mail": null, "image": null, "grouping": "service", "department": "Services", "label_state": 0, "icon_name": null, "id": 30 }, "geometry": { "type": "Point", "coordinates": [ -6.868603530169759, 33.974325639816556 ] } },
{ "type": "Feature", "properties": { "fid": 30, "name": "Buvette APESA", "label": "B", "brochure": null, "mail": null, "image": null, "grouping": "food", "department": "Restaus", "label_state": 0, "icon_name": null, "id": 31 }, "geometry": { "type": "Point", "coordinates": [ -6.867973586265061, 33.972488744565062 ] } },
{ "type": "Feature", "properties": { "fid": 31, "name": "Terrain du Volleyball 01", "label": "B", "brochure": null, "mail": null, "image": null, "grouping": "sport", "department": "Equipement Sportif", "label_state": 0, "icon_name": null, "id": 32 }, "geometry": { "type": "Point", "coordinates": [ -6.866882565771298, 33.971911207758332 ] } },
{ "type": "Feature", "properties": { "fid": 32, "name": "Terrain du Volleyball 02", "label": "B", "brochure": null, "mail": null, "image": null, "grouping": "sport", "department": "Equipement Sportif", "label_state": 0, "icon_name": null, "id": 33 }, "geometry": { "type": "Point", "coordinates": [ -6.86699426170734, 33.971984789441315 ] } },
{ "type": "Feature", "properties": { "fid": 33, "name": "Terrain du Handball", "label": "B", "brochure": null, "mail": null, "image": null, "grouping": "sport", "department": "Equipement Sportif", "label_state": 0, "icon_name": null, "id": 34 }, "geometry": { "type": "Point", "coordinates": [ -6.86666817309785, 33.972218239241293 ] } },
{ "type": "Feature", "properties": { "fid": 34, "name": "Terrain du Basketball 04", "label": "B", "brochure": null, "mail": null, "image": null, "grouping": "sport", "department": "Equipement Sportif", "label_state": 0, "icon_name": "basket", "id": 35 }, "geometry": { "type": "Point", "coordinates": [ -6.86704719816992, 33.972313524873933 ] } },
{ "type": "Feature", "properties": { "fid": 35, "name": "Terrain du Basketball 03", "label": "B", "brochure": null, "mail": null, "image": null, "grouping": "sport", "department": "Equipement Sportif", "label_state": 0, "icon_name": "basket", "id": 36 }, "geometry": { "type": "Point", "coordinates": [ -6.866885212594426, 33.972483980283435 ] } },
{ "type": "Feature", "properties": { "fid": 36, "name": "Terrain du Basketball 01", "label": "B", "brochure": null, "mail": null, "image": null, "grouping": "sport", "department": "Equipement Sportif", "label_state": 0, "icon_name": "basket", "id": 37 }, "geometry": { "type": "Point", "coordinates": [ -6.866341025759111, 33.972492979482077 ] } },
{ "type": "Feature", "properties": { "fid": 37, "name": "Terrain du Basketball 02", "label": "B", "brochure": null, "mail": null, "image": null, "grouping": "sport", "department": "Equipement Sportif", "label_state": 0, "icon_name": "basket", "id": 38 }, "geometry": { "type": "Point", "coordinates": [ -6.86645695661216, 33.972569737352821 ] } },
{ "type": "Feature", "properties": { "fid": 38, "name": "Terrain du Football", "label": "B", "brochure": null, "mail": null, "image": null, "grouping": "sport", "department": "Equipement Sportif", "label_state": 0, "icon_name": null, "id": 39 }, "geometry": { "type": "Point", "coordinates": [ -6.866607296165887, 33.97273489911607 ] } },
{ "type": "Feature", "properties": { "fid": 39, "name": "Grand-terrain du Football", "label": "B", "brochure": null, "mail": null, "image": null, "grouping": "sport", "department": "Equipement Sportif", "label_state": 0, "icon_name": null, "id": 40 }, "geometry": { "type": "Point", "coordinates": [ -6.865626912878914, 33.973369077937768 ] } },
{ "type": "Feature", "properties": { "fid": 40, "name": "Capacity Building Center", "label": "B", "brochure": null, "mail": null, "image": null, "grouping": "cap", "department": "Structures", "label_state": 0, "icon_name": null, "id": 41 }, "geometry": { "type": "Point", "coordinates": [ -6.865988468918331, 33.976873471760534 ] } },
{ "type": "Feature", "properties": { "fid": 41, "name": "ONSSA", "label": "B", "brochure": null, "mail": null, "image": null, "grouping": "onssa", "department": "Structures", "label_state": 0, "icon_name": null, "id": 42 }, "geometry": { "type": "Point", "coordinates": [ -6.869557445225439, 33.974811067178429 ] } },
{ "type": "Feature", "properties": { "fid": 42, "name": "Pavillon 4 (Garçons)", "label": "B", "brochure": null, "mail": null, "image": null, "grouping": "room", "department": "Internat", "label_state": 0, "icon_name": null, "id": 43 }, "geometry": { "type": "Point", "coordinates": [ -6.861287711041272, 33.980327046579234 ] } },
{ "type": "Feature", "properties": { "fid": 43, "name": "Pavillon 5 (Garçons)", "label": "B", "brochure": null, "mail": null, "image": null, "grouping": "room", "department": "Internat", "label_state": 0, "icon_name": null, "id": 44 }, "geometry": { "type": "Point", "coordinates": [ -6.861029381103886, 33.980491149613229 ] } },
{ "type": "Feature", "properties": { "fid": 44, "name": "Mosquée", "label": "B", "brochure": null, "mail": null, "image": null, "grouping": "prayer", "department": "Divers", "label_state": 0, "icon_name": null, "id": 45 }, "geometry": { "type": "Point", "coordinates": [ -6.861180779386864, 33.980388452875822 ] } },
{ "type": "Feature", "properties": { "fid": 45, "name": "Foyer", "label": "B", "brochure": null, "mail": null, "image": null, "grouping": "press", "department": "Divers", "label_state": 0, "icon_name": null, "id": 46 }, "geometry": { "type": "Point", "coordinates": [ -6.861791136800405, 33.980366219561532 ] } },
{ "type": "Feature", "properties": { "fid": 46, "name": "Salle de jeux", "label": "B", "brochure": null, "mail": null, "image": null, "grouping": "game", "department": "Divers", "label_state": 0, "icon_name": null, "id": 47 }, "geometry": { "type": "Point", "coordinates": [ -6.861917125581343, 33.980386070735008 ] } },
{ "type": "Feature", "properties": { "fid": 47, "name": "Formation Génie Rural", "label": "GR", "brochure": null, "mail": null, "image": null, "grouping": "departments", "department": "Département", "label_state": 1, "icon_name": null, "id": 48 }, "geometry": { "type": "Point", "coordinates": [ -6.865833240579765, 33.977332404716456 ] } },
{ "type": "Feature", "properties": { "fid": 48, "name": "Salle des Conférences", "label": "B", "brochure": null, "mail": null, "image": null, "grouping": "amphitheater", "department": "Amphithéàtres", "label_state": 0, "icon_name": null, "id": 49 }, "geometry": { "type": "Point", "coordinates": [ -6.862895055841095, 33.979749150321801 ] } },
{ "type": "Feature", "properties": { "fid": 49, "name": "Bureau Directeur Général", "label": "B", "brochure": null, "mail": null, "image": null, "grouping": "admin", "department": null, "label_state": 0, "icon_name": null, "id": 50 }, "geometry": { "type": "Point", "coordinates": [ -6.863621392971395, 33.979999362298877 ] } },
{ "type": "Feature", "properties": { "fid": 50, "name": "Bureau Directeur Pédagogique", "label": "BDP", "brochure": null, "mail": null, "image": null, "grouping": "admin", "department": null, "label_state": 0, "icon_name": null, "id": 51 }, "geometry": { "type": "Point", "coordinates": [ -6.863758648360395, 33.980090646983427 ] } },
{ "type": "Feature", "properties": { "fid": 51, "name": "Bureau Responsable Informatique", "label": "BRI", "brochure": null, "mail": null, "image": null, "grouping": "admin", "department": "Administration", "label_state": 0, "icon_name": null, "id": 52 }, "geometry": { "type": "Point", "coordinates": [ -6.863683125060228, 33.980044019554633 ] } },
{ "type": "Feature", "properties": { "fid": 52, "name": "Salle des réunions", "label": "B", "brochure": null, "mail": null, "image": null, "grouping": "admin", "department": "Administration", "label_state": 0, "icon_name": null, "id": 53 }, "geometry": { "type": "Point", "coordinates": [ -6.863677214541084, 33.980174707700137 ] } },
{ "type": "Feature", "properties": { "fid": 53, "name": "Ecole doctorale", "label": "ED", "brochure": null, "mail": null, "image": null, "grouping": "admin", "department": "Administration", "label_state": 0, "icon_name": null, "id": 54 }, "geometry": { "type": "Point", "coordinates": [ -6.863543242773832, 33.979980974017103 ] } },
{ "type": "Feature", "properties": { "fid": 54, "name": "Département des Stages", "label": "DS", "brochure": null, "mail": null, "image": null, "grouping": "departments", "department": "Formation", "label_state": 0, "icon_name": null, "id": 57 }, "geometry": { "type": "Point", "coordinates": [ -6.864215053067795, 33.979001542920507 ] } },
{ "type": "Feature", "properties": { "fid": 55, "name": "grass", "label": "B", "brochure": null, "mail": null, "image": null, "grouping": null, "department": null, "label_state": 0, "icon_name": null, "id": 58 }, "geometry": { "type": "Point", "coordinates": [ -6.867703009938676, 33.976534020075675 ] } },
{ "type": "Feature", "properties": { "fid": 56, "name": "grass", "label": "B", "brochure": null, "mail": null, "image": null, "grouping": null, "department": null, "label_state": 0, "icon_name": null, "id": 59 }, "geometry": { "type": "Point", "coordinates": [ -6.868750207624503, 33.975224549256595 ] } },
{ "type": "Feature", "properties": { "fid": 57, "name": "grass", "label": "B", "brochure": null, "mail": null, "image": null, "grouping": null, "department": null, "label_state": 0, "icon_name": null, "id": 60 }, "geometry": { "type": "Point", "coordinates": [ -6.867065430678887, 33.978049987992307 ] } },
{ "type": "Feature", "properties": { "fid": 58, "name": "Amphithéâtre APESA", "label": "B", "brochure": null, "mail": null, "image": null, "grouping": "amphitheater", "department": "Amphithéâtre", "label_state": 0, "icon_name": null, "id": 61 }, "geometry": { "type": "Point", "coordinates": [ -6.868903429967482, 33.972626052992332 ] } },
{ "type": "Feature", "properties": { "fid": 59, "name": "Bibliothèque Topo", "label": "B", "brochure": null, "mail": null, "image": null, "grouping": "biblio", "department": "Bibliothèque", "label_state": 0, "icon_name": null, "id": 62 }, "geometry": { "type": "Point", "coordinates": [ -6.867049984132595, 33.976345968135057 ] } },
{ "type": "Feature", "properties": { "fid": 60, "name": "Résidence Filles", "label": "B", "brochure": null, "mail": null, "image": null, "grouping": "room", "department": "Résidence", "label_state": 0, "icon_name": null, "id": 63 }, "geometry": { "type": "Point", "coordinates": [ -6.862025665356802, 33.980510737696008 ] } },
{ "type": "Feature", "properties": { "fid": 61, "name": "Pavillon A (Garçons)", "label": "B", "brochure": null, "mail": null, "image": null, "grouping": "room", "department": "Résidence", "label_state": 0, "icon_name": null, "id": 64 }, "geometry": { "type": "Point", "coordinates": [ -6.867993843198661, 33.972016691547338 ] } },
{ "type": "Feature", "properties": { "fid": 62, "name": "Pavillion B (Garçons)", "label": "B", "brochure": null, "mail": null, "image": null, "grouping": "room", "department": "Résidence", "label_state": 0, "icon_name": null, "id": 65 }, "geometry": { "type": "Point", "coordinates": [ -6.868033599063462, 33.972256597628039 ] } },
{ "type": "Feature", "properties": { "fid": 63, "name": "Pavillion C (Garçons)", "label": "B", "brochure": null, "mail": null, "image": null, "grouping": "room", "department": "Résidence", "label_state": 0, "icon_name": null, "id": 66 }, "geometry": { "type": "Point", "coordinates": [ -6.867681279847806, 33.972352560060315 ] } },
{ "type": "Feature", "properties": { "fid": 64, "name": "Pavillion D (Filles)", "label": "B", "brochure": null, "mail": null, "image": null, "grouping": "room", "department": "Résidence", "label_state": 0, "icon_name": null, "id": 67 }, "geometry": { "type": "Point", "coordinates": [ -6.867730631955836, 33.97260069149236 ] } },
{ "type": "Feature", "properties": { "fid": 65, "name": "Pavillion E (Filles)", "label": "B", "brochure": null, "mail": null, "image": null, "grouping": "room", "department": "Résidence", "label_state": 0, "icon_name": null, "id": 68 }, "geometry": { "type": "Point", "coordinates": [ -6.867368716496952, 33.972703508384086 ] } },
{ "type": "Feature", "properties": { "fid": 66, "name": "Pavillion F (Filles)", "label": "B", "brochure": null, "mail": null, "image": null, "grouping": "room", "department": "Résidence", "label_state": 0, "icon_name": null, "id": 69 }, "geometry": { "type": "Point", "coordinates": [ -6.867430406631989, 33.972940672681005 ] } },
{ "type": "Feature", "properties": { "fid": 67, "name": "Terrain du Basketball Admin", "label": "B", "brochure": null, "mail": null, "image": null, "grouping": null, "department": "Sport", "label_state": 0, "icon_name": "basket", "id": 70 }, "geometry": { "type": "Point", "coordinates": [ -6.864478876393438, 33.979910287048305 ] } },
{ "type": "Feature", "properties": { "fid": 68, "name": null, "label": "B", "brochure": null, "mail": null, "image": null, "grouping": null, "department": null, "label_state": 0, "icon_name": "parking", "id": 71 }, "geometry": { "type": "Point", "coordinates": [ -6.86359122389485, 33.980966559249318 ] } },
{ "type": "Feature", "properties": { "fid": 69, "name": null, "label": "B", "brochure": null, "mail": null, "image": null, "grouping": null, "department": null, "label_state": 0, "icon_name": "parking", "id": 72 }, "geometry": { "type": "Point", "coordinates": [ -6.867435204753602, 33.977092418768997 ] } },
{ "type": "Feature", "properties": { "fid": 70, "name": null, "label": "B", "brochure": null, "mail": null, "image": null, "grouping": null, "department": null, "label_state": 0, "icon_name": "parking", "id": 73 }, "geometry": { "type": "Point", "coordinates": [ -6.864374688609821, 33.980303733020655 ] } },
{ "type": "Feature", "properties": { "fid": 71, "name": "grass", "label": "B", "brochure": null, "mail": null, "image": null, "grouping": null, "department": null, "label_state": 0, "icon_name": null, "id": 74 }, "geometry": { "type": "Point", "coordinates": [ -6.863408209827573, 33.981122155478801 ] } },
{ "type": "Feature", "properties": { "fid": 72, "name": "grass", "label": "B", "brochure": null, "mail": null, "image": null, "grouping": null, "department": null, "label_state": 0, "icon_name": null, "id": 75 }, "geometry": { "type": "Point", "coordinates": [ -6.8641909890966, 33.979697798805397 ] } },
{ "type": "Feature", "properties": { "fid": 73, "name": "Bureau logistique", "label": "Agro", "brochure": null, "mail": "charaf.ebrahmi@gmail.com", "image": null, "grouping": "admin", "department": "Département", "label_state": 1, "icon_name": null, "id": 111 }, "geometry": { "type": "Point", "coordinates": [ -6.866274230980303, 33.978812661399743 ] } },
{ "type": "Feature", "properties": { "fid": 9, "name": "Formation Agronomie", "label": "Agro", "brochure": null, "mail": null, "image": null, "grouping": "departments", "department": "Formation", "label_state": 1, "icon_name": null, "id": null }, "geometry": { "type": "Point", "coordinates": [ -6.863821051473926, 33.979209265038975 ] } }
]
}
